_c0,Store Number,Recency,Frequency,Monetary,r_seg,f_seg,m_seg,RFMScore,prediction,Store,Report Date,Name,Store Status,Address,State,Zip Code,latitude,longitude,City
0,5645,6,2788,204380.28,3,1,1,311,1,5645,2022-11-01,PHILLIPS 66 / GRINNELL,A,1031 WEST ST,IA,50112,41.745903,-92.727379,GRINNELL
1,4937,3,284,38821.16,1,3,3,133,1,4937,2022-11-01,ROCSTOP,A,1310 W SHERIDAN AVE,IA,51601,40.765869,-95.38464,SHENANDOAH
2,6194,4,1110,175641.41,2,2,1,221,1,6194,2022-11-01,HY-VEE DOLLAR FRESH / NEVADA,A,1622 FAWCETT PARKWAY,IA,50201,42.012648,-93.437898,NEVADA
3,3959,0,649,40119.05,1,2,3,123,1,3959,2022-11-01,HARTIG DRUG COMPANY #8/UNIVERSITY,A,1600 UNIVERSITY AVE,IA,52001,42.498279,-90.688027,DUBUQUE
4,5925,10,379,34980.96,3,3,3,333,1,5925,2022-11-01,FREDRICKSBURG FOOD CENTER,A,100 W MAIN ST,IA,50630,42.965098,-92.199473,FREDERICKSBURG
5,4821,12,387,48908.65,4,3,3,433,1,4821,2022-11-01,CASEY'S GENERAL STORE #3215 / OSKALOOSA,A,901 S MARKET ST,IA,52577,41.287632,-92.645075,OSKALOOSA
6,6240,0,490,36493.87,1,3,3,133,1,6240,2022-11-01,RACEWAY 80 / NEWTON,A,4300 SOUTH 22ND AVENUE EAST,IA,50208,41.679627,-93.000617,NEWTON
7,4838,10,430,52615.37,3,3,3,333,1,4838,2022-11-01,CASEY'S GENERAL STORE #2448 / OGDEN,A,"102, W VETERANS DR",IA,50212,42.03201,-94.028392,OGDEN
8,5149,3,1496,214493.72,1,1,1,111,1,5149,2022-11-01,B S MINI MART INC,A,"1900, SUMMER ST",IA,52601,40.789013,-91.116076,BURLINGTON
9,3650,0,2035,282222.19,1,1,1,111,1,3650,2022-11-01,"SPIRITS, STOGIES AND STUFF",A,118 SOUTH MAIN ST.,IA,51025,42.488703,-95.544794,HOLSTEIN
10,6248,5,1204,80239.03,2,2,2,222,1,6248,2022-11-01,QUICK STOP / CEDAR RAPIDS,A,380 BLAIRS FERRY ROAD NORTHEAST,IA,52402,42.03474,-91.638037,CEDAR RAPIDS
11,5613,6,204,22923.38,3,4,4,344,1,5613,2022-11-01,CASEY'S GENERAL STORE #2624 / MANCHESTER,A,1413 N FRANKLIN ST,IA,52057,42.502602,-91.45793,MANCHESTER
12,4975,27,226,45741.9,4,4,3,443,1,4975,2022-11-01,WALGREENS #15647 / SIOUX CITY,A,1900 HAMILTON BLVD,IA,51104,42.511222,-96.416702,SIOUX CITY
13,3826,209,71,13956.78,4,4,4,444,1,3826,2022-11-01,LAKESIDE HOTEL & CASINO,A,777 CASINO DR,IA,50213,41.040076,-93.797569,OSCEOLA
14,2700,5,919,165324.56,2,2,1,221,1,2700,2022-11-01,HY-VEE DOLLAR FRESH - EMMETSBURG,A,3402 MAIN STREET,IA,50536,43.111917,-94.693413,EMMETSBURG
15,3949,5,774,148649.79,2,2,2,222,1,3949,2022-11-01,WAL-MART 0751 / PELLA,A,1650 WASHINGTON ST,IA,50219,41.410511,-92.934358,PELLA
16,5044,10,416,67054.34,3,3,2,332,1,5044,2022-11-01,CASEY'S GENERAL STORE #3202 / CRESCE,A,"111, MORMON BRIDGE RD",IA,51526,41.362302,-95.85886,CRESCENT
17,5757,10,266,27115.44,3,3,4,334,1,5757,2022-11-01,CASEY'S GENERAL STORE #1651 / ALBIA,A,1117 CLINTON ST,IA,52531,41.016644,-92.80911,ALBIA
18,5316,5,1246,40314.34,2,1,3,213,1,5316,2022-11-01,BROTHER'S MARKET/ SIGOURNEY,A,118 SOUTH MAIN STREET,IA,52591,41.332944,-92.205098,SIGOURNEY
19,5913,4,262,39146.42,2,4,3,243,1,5913,2022-11-01,CASEY'S GENERAL STORE #1427 / CLEAR LAKE,A,6 PLAZA DR,IA,50428,43.145936,-93.360505,CLEAR LAKE
20,2696,10,415,51296.99,3,3,3,333,1,2696,2022-11-01,HY-VEE C-STORE / SE ARMY POST,A,1113 SE ARMY POST RD,IA,50315,41.526277,-93.601142,DES MOINES
21,5181,6,480,47937.57,3,3,3,333,1,5181,2022-11-01,CASEY'S GENERAL STORE #3434  /  DENV,A,"1101, JEFFERSON ST",IA,50622,42.661531,-92.336974,DENVER
22,6081,14,738,34061.0,4,2,3,423,1,6081,2022-11-01,CIRCLE K / WDM,A,3501 EP TRUE PARKWAY,IA,50265,41.570152,-93.752618,WEST DES MOINES
23,6143,5,2579,346913.41,2,1,1,211,1,6143,2022-11-01,HOMETOWN WINE & SPIRITS / OSKALOOSA,A,1202 A AVE E,IA,52577,41.296289,-92.631668,OSKALOOSA
24,4988,4,7769,1301546.92,2,1,1,211,0,4988,2022-11-01,HAPPY'S WINE & SPIRITS,A,5925 UNIVERSITY AVE,IA,50613,42.512762,-92.429644,CEDAR FALLS
25,6252,3,1412,226758.44,1,1,1,111,1,6252,2022-11-01,KWIK SPIRITS #1191 / FORT DODGE,A,1923 5TH AVENUE SOUTH,IA,50501,42.501169,-94.170859,FORT DODGE
26,4249,3,559,72191.32,1,3,2,132,1,4249,2022-11-01,FAREWAY STORES #048 / CLARINDA,A,115 ESSIE DAVISON DRIVE,IA,51632,40.724008,-95.040293,CLARINDA
27,2550,6,1354,207233.18,3,1,1,311,1,2550,2022-11-01,HY-VEE FOOD STORE / OSCEOLA,A,510 WEST MCLANE,IA,50213,41.030569,-93.77321,OSCEOLA
28,4665,5,1311,104547.27,2,1,2,212,1,4665,2022-11-01,CASEY'S GENERAL STORE #2896 / ANKENY,A,2601 SE CREEKVIEW DR,IA,50021,41.703978,-93.571376,ANKENY
29,5057,4,1241,74706.84,2,1,2,212,1,5057,2022-11-01,KUM & GO #535 / DES MOINES,A,4960 E BROADWAY AVE,IA,50317,,,DES MOINES
30,5082,3,453,52127.24,1,3,3,133,1,5082,2022-11-01,CASEY'S GENERAL STORE #2365 / ATLANT,A,911 SW 7TH ST,IA,50022,41.401431,-95.028313,ATLANTIC
31,6106,10,49,5525.7,3,4,4,344,1,6106,2022-11-01,MOES MART #4 / COUNCIL BLUFFS,A,2024 5TH AVE,IA,51501,41.25712,-95.874965,COUNCIL BLUFFS
32,5297,10,216,34696.18,3,4,3,343,1,5297,2022-11-01,YESWAY STORE # 10018/ WEBSTER CITY,A,1803 SUPERIOR ST,IA,50595,42.459531,-93.815845,WEBSTER CITY
33,4236,5,771,133892.43,2,2,2,222,1,4236,2022-11-01,FAREWAY STORES #551 / EAGLE GROVE,A,205 NW  1ST ST,IA,50533,42.665165,-93.903801,EAGLE GROVE
34,5408,13,184,28085.44,4,4,4,444,1,5408,2022-11-01,CASEY'S GENERAL STORE # 1441/ MARSHALLTOWN,A,1402 S 12TH AVE,IA,50158,42.031757,-92.893431,MARSHALLTOWN
35,5234,14,277,40762.44,4,3,3,433,1,5234,2022-11-01,CASEY'S GENERAL STORE #3473 / DUBUQU,A,"1072, CEDAR CROSS RD",IA,52003,42.478563,-90.708156,DUBUQUE
36,3652,20,96,16043.2,4,4,4,444,1,3652,2022-11-01,DISCOUNT LIQUORS OF IDA GROVE,A,604 W 2ND,IA,51445,42.063517,-94.876368,IDA GROVE
37,6033,13,174,26585.59,4,4,4,444,1,6033,2022-11-01,CASEY'S GENERAL STORE #2477 / LE MARS,A,101 5TH AVE SW,IA,51031,42.791494,-96.173748,LE MARS
38,3993,6,2663,359027.15,3,1,1,311,1,3993,2022-11-01,NEW STAR LIQUOR / W 4TH S / WATERLOO,A,1625 WEST 4TH ST,IA,50701,42.484351,-92.356479,WATERLOO
39,5450,17,487,32846.54,4,3,3,433,1,5450,2022-11-01,CASEY'S GENERAL STORE # 2211/ FORT DODGE,A,2007 N 15TH STREET,IA,50501,42.526955,-94.177992,FORT DODGE
40,5052,3,653,65320.58,1,2,2,122,1,5052,2022-11-01,CASEY'S GENERAL STORE #3220 / GREENF,A,"302, SE 6TH ST",IA,50849,41.303367,-94.453264,GREENFIELD
41,4594,0,1369,40626.13,1,1,3,113,1,4594,2022-11-01,QUIK TRIP #554 / SW 63RD DM,A,901 SW 63RD ST,IA,50312,41.569715,-93.703165,DES MOINES
42,4464,3,920,99969.21,1,2,2,122,1,4464,2022-11-01,PERFECT VALUE LIQUOR MART,A,5B  LINCOLN AVE,IA,52748,41.695152,-90.547912,ELDRIDGE
43,5986,40,207,21338.62,4,4,4,444,1,5986,2022-11-01,CASEY'S GENERAL STORE #2366 / OSKALOOSA,A,1809 9TH AVE E,IA,52577,41.287177,-92.623028,OSKALOOSA
44,6217,6,1298,92343.11,3,1,2,312,1,6217,2022-11-01,TODD'S SHELL / ROCK RAPIDS,A,209 SOUTH UNION STREET,IA,51246,43.430056,-96.175502,ROCK RAPIDS
45,4569,0,688,70127.66,1,2,2,122,1,4569,2022-11-01,CAR-GO-EXPRESS / SUTHERLAND,A,202 WEST SOUTHERN ST,IA,51058,42.968051,-95.499741,SUTHERLAND
46,4818,3,784,82224.31,1,2,2,122,1,4818,2022-11-01,DECORAH MART,A,"303, COLLEGE DR",IA,52101,43.307662,-91.796988,DECORAH
47,2644,3,4778,1214260.56,1,1,1,111,0,2644,2022-11-01,HY-VEE FORT DODGE WINE AND SPIRITS,A,1511 2ND AVE NORTH,IA,50501,42.508343,-94.177192,FORT DODGE
48,5434,3,1872,117541.88,1,1,2,112,1,5434,2022-11-01,"MK MINIMART, INC",A,101 E MT. PLEASANT STREET,IA,52655,40.826019,-91.156304,WEST BURLINGTON
49,5291,115,305,43705.6,4,3,3,433,1,5291,2022-11-01,JUMPSTART,I,"109, LOCUST ST",IA,51510,41.285055,-95.928649,CARTER LAKE
50,4782,3,148,25432.36,1,4,4,144,1,4782,2022-11-01,CASEY'S GENERAL STORE #2529 / LAMONI,A,406 E MAIN ST,IA,50140,40.62366,-93.92909,LAMONI
51,4417,10,498,38564.32,3,3,3,333,1,4417,2022-11-01,KUM & GO #76 / ADAIR,A,109 S 5TH ST,IA,50002,,,ADAIR
52,4980,6,760,47055.56,3,2,3,323,1,4980,2022-11-01,PRONTO BP,A,7305 LAPORTE RD.,IA,50702,42.409095,-92.264665,WASHBURN
53,6264,4,1315,238003.22,2,1,1,211,1,6264,2022-11-01,MLK LIQUOR LLC / DES MOINES,A,3424 MARTIN LUTHER KING JUNIOR PARKWAY,IA,50310,,,DES MOINES
54,5071,0,1654,69240.04,1,1,2,112,1,5071,2022-11-01,JEFF'S MARKET / DURANT,A,408 6TH AVE,IA,52747,41.600606,-90.911744,DURANT
55,5543,3,148,22613.09,1,4,4,144,1,5543,2022-11-01,CASEY'S GENERAL STORE #2541 / BEDFORD,A,608 MADISON,IA,50833,40.66762,-94.721407,BEDFORD
56,4736,38,113,22339.29,4,4,4,444,1,4736,2022-11-01,WALGREENS #03876 / MARION,A,1225 7TH AVE,IA,52302,42.033295,-91.596313,MARION
57,6278,4,221,88934.27,2,4,2,242,1,6278,2022-11-01,ADVENTURELAND / ALTOONA,A,305 34TH AVE NW,IA,50009,,,ALTOONA
58,4719,35,148,25321.26,4,4,4,444,1,4719,2022-11-01,WALGREENS #06677 / WEST DES MOINES,A,4900 MILLS CIVIC PKWY,IA,50265,41.559127,-93.769885,WEST DES MOINES
59,2200,0,2665,234445.21,1,1,1,111,1,2200,2022-11-01,SAC LIQUOR STORE,A,619 E MAIN ST,IA,50583,42.421341,-94.974011,SAC CITY
60,6209,3,5750,1158890.07,1,1,1,111,0,6209,2022-11-01,HY-VEE / GRIMES,A,351 NORTHEAST GATEWAY DRIVE,IA,50111,41.68625,-93.779961,GRIMES
61,2718,3,454,87735.95,1,3,2,132,1,2718,2022-11-01,HY-VEE WAUKON DOLLAR FRESH,A,819 11TH AVE SW,IA,52172,43.256597,-91.487004,WAUKON
62,4934,3,365,50816.91,1,3,3,133,1,4934,2022-11-01,CASEY'S GENERAL STORE #2811 / SPRINGVILLE,A,605 6TH ST S,IA,52336,42.050954,-91.443745,SPRINGVILLE
63,6212,14,510,58515.52,4,3,2,432,1,6212,2022-11-01,HAMPTON CROSSROADS / HAMPTON,I,4 4TH STREET SOUTHEAST,IA,50441,42.741526,-93.202489,HAMPTON
64,3656,5,992,228484.92,2,2,1,221,1,3656,2022-11-01,TARGET STORE T-1767 / ANKENY,A,2135 SE DELAWARE AVE,IA,50021,41.708563,-93.581201,ANKENY
65,4315,5,327,68759.92,2,3,2,232,1,4315,2022-11-01,FAREWAY STORES #554 / WASHINGTON,A,301 NORTH MARION AVE,IA,52353,41.301967,-91.692985,WASHINGTON
66,5321,42,112,14397.24,4,4,4,444,1,5321,2022-11-01,CASEY'S GENERAL STORE # 3513/ BELLE PLAINE,A,606 13TH ST,IA,52208,41.897056,-92.279383,BELLE PLAINE
67,4685,7,103,8184.43,3,4,4,344,1,4685,2022-11-01,KWIK STOP FOOD MART,A,2360 CENTRAL,IA,52001,42.515766,-90.672718,DUBUQUE
68,5498,27,192,9935.41,4,4,4,444,1,5498,2022-11-01,6 CORNERS GAS & GRUB,A,300 EAST ST,IA,50606,42.745695,-91.666012,ARLINGTON
69,2605,5,4162,785628.11,2,1,1,211,0,2605,2022-11-01,HY-VEE DRUGSTORE #5 / CEDAR RAPIDS,A,2001 BLAIRS FERRY RD NE,IA,52402,42.034799,-91.668919,CEDAR RAPIDS
70,6091,6,601,120855.87,3,2,2,322,1,6091,2022-11-01,HAWKEYE LIQUOR & TOBACCO / IOWA CITY,A,601 HOLLYWOOD BLVD STE 1,IA,52240,41.643807,-91.52741,IOWA CITY
71,5855,27,96,15305.62,4,4,4,444,1,5855,2022-11-01,TAYLOR QUIK PIK - HARLAN,A,2111 23RD STREET,IA,51537,41.647276,-95.339634,HARLAN
72,2628,0,944,117949.93,1,2,2,122,1,2628,2022-11-01,HY-VEE FOOD STORE / ELDORA,A,1616 EDGINGTON AVE,IA,50627,42.360631,-93.103765,ELDORA
73,5079,34,205,24387.51,4,4,4,444,1,5079,2022-11-01,CASEY'S GENERAL STORE #2489 / DENISO,A,1608 4TH AVE S,IA,51442,42.012395,-95.349198,DENISON
74,5306,49,55,8136.98,4,4,4,444,1,5306,2022-11-01,FAS MART # 5159/ DUBUQUE,A,2175 CENTRAL AVENUE,IA,52001,42.512915,-90.670952,DUBUQUE
75,6069,0,114,7530.79,1,4,4,144,1,6069,2022-11-01,BIG 10 MART #12 / DUBUQUE,A,405 RHOMBERG,IA,52001,42.512569,-90.66619,DUBUQUE
76,5412,27,276,38880.17,4,3,3,433,1,5412,2022-11-01,CASEY'S GENERAL STORE # 1029/ TAMA,A,1207 STATE STREET,IA,52339,41.970558,-92.576837,TAMA
77,5170,13,171,26531.34,4,4,4,444,1,5170,2022-11-01,CASEY'S GENERAL STORE #1414  / STATE,A,911 3RD  AVE SW,IA,50247,42.009066,-93.165186,STATE CENTER
78,2720,0,227,21087.13,1,4,4,144,1,2720,2022-11-01,HY-VEE GAS #3 / WDM,A,7280 UNIVERSITY AVE,IA,50266,41.600395,-93.807442,WEST DES MOINES
79,4856,0,383,40981.54,1,3,3,133,1,4856,2022-11-01,BROTHERS MARKET / LISBON,A,930 COMMERCIAL ST,IA,52253,41.918663,-91.401063,LISBON
80,2545,5,3942,494966.73,2,1,1,211,0,2545,2022-11-01,HY-VEE DRUGSTORE / IOWA CITY,A,310 N 1ST ST,IA,52245,42.207428,-91.528105,IOWA CITY
81,5352,6,609,71198.3,3,2,2,322,1,5352,2022-11-01,CASEY'S GENERAL STORE # 3565/ TRIPOLI,A,600 7TH AVE,IA,50676,,,TRIPOLI
82,5859,4,1759,263836.25,2,1,1,211,1,5859,2022-11-01,LIQUOR TOBACCO & GROCERY - MASON CITY,A,18 NORTH MONROE AVENUE,IA,50401,43.152301,-93.208614,MASON CITY
83,4205,6,898,127332.38,3,2,2,322,1,4205,2022-11-01,FAREWAY STORES #467 / MARSHALLTOWN,A,102 WEST ANSON ST,IA,50158,42.038157,-92.914475,MARSHALLTOWN
84,5041,3,536,53539.75,1,3,3,133,1,5041,2022-11-01,CASEY'S GENERAL STORE #3309 / MONTEZ,A,106 N FRONT ST,IA,50171,41.58587,-92.52723,MONTEZUMA
85,5497,13,226,38280.45,4,4,3,443,1,5497,2022-11-01,CASEY'S GENERAL STORE #3617 / GRINNELL,A,635 LANG CREEK AVE,IA,50112,41.699636,-92.725708,GRINNELL
86,5377,0,312,40525.4,1,3,3,133,1,5377,2022-11-01,CASEY'S GENERAL STORE # 2517/ ROCKWELL CITY,A,627 HIGH ST.,IA,50579,42.398728,-94.637172,ROCKWELL CITY
87,5179,13,352,32933.04,4,3,3,433,1,5179,2022-11-01,BAXTER FAMILY MARKET,A,"103, N  MAIN ST",IA,50028,41.826717,-93.151465,BAXTER
88,5799,7,224,30277.97,3,4,4,344,1,5799,2022-11-01,CASEY'S GENERAL STORE #2472 / NICHOLS,A,1334 HWY 22,IA,52766,41.481091,-91.304108,NICHOLS
89,4730,4,458,51637.26,2,3,3,233,1,4730,2022-11-01,WALGREENS #05944 / JOHNSTON,A,6200 MERLE HAY RD,IA,50131,41.673354,-93.697684,JOHNSTON
90,5096,20,257,43890.98,4,4,3,443,1,5096,2022-11-01,WALGREENS #11710 / NORTH LIBERTY,A,625 PACHA PARKWAY,IA,52317,41.752694,-91.606275,NORTH LIBERTY
91,4884,6,1122,114589.03,3,2,2,322,1,4884,2022-11-01,TOBACCO HUT #11 / SIOUX CITY,A,"4523, MORNINGSIDE AVE",IA,51106,42.470479,-96.348659,SIOUX CITY
92,5656,0,840,139711.44,1,2,2,122,1,5656,2022-11-01,CODY MART GAS & LIQUOR,A,1220 N CODY RD,IA,52753,41.611036,-90.34429,LE CLAIRE
93,6121,6,1185,144681.43,3,2,2,322,1,6121,2022-11-01,LIQUOR TOBACCO & VAPE / MANCHESTER,A,316 E MAIN ST,IA,52057,42.484002,-91.454385,MANCHESTER
94,6019,5,1433,140628.91,2,1,2,212,1,6019,2022-11-01,CASEY'S GENERAL STORE #3888 / ANKENY,A,1024 E 1ST ST,IA,50021,41.731949,-93.581708,ANKENY
95,4369,10,872,64364.47,3,2,2,322,1,4369,2022-11-01,KUM & GO #28 / NORWALK,A,2991 SUNSET DR,IA,50211,41.496707,-93.674221,NORWALK
96,4740,31,209,42594.9,4,4,3,443,1,4740,2022-11-01,WALGREENS #04405 / COUNCIL BLUFFS,A,2508 W BROADWAY,IA,51501,41.261941,-95.882784,COUNCIL BLUFFS
97,6300,18,454,25515.06,4,3,4,434,1,6300,2022-11-01,SOUTHGATE WINE & SPIRITS / AMES,A,110 AIRPORT ROAD,IA,50010,42.000991,-93.610715,AMES
98,5965,24,175,20210.71,4,4,4,444,1,5965,2022-11-01,CASEY'S GENERAL STORE #1499 / CHARITON,A,418 S. 7TH ST,IA,50049,41.010221,-93.303463,CHARITON
99,5829,6,452,66662.73,3,3,2,332,1,5829,2022-11-01,CASEY'S GENERAL STORE #3858 - IOWA CITY,A,370 SCOTT CT,IA,52245,41.657452,-91.482149,IOWA CITY
100,5802,39,502,43808.74,4,3,3,433,1,5802,2022-11-01,CASEY'S GENERAL STORE #3718 / PLEASANT HILL,A,1175 NE 75TH ST,IA,50327,41.599814,-93.455006,PLEASANT HILL
101,5458,6,212,40396.28,3,4,3,343,1,5458,2022-11-01,R&L FOODS,A,213 MAIN ST.,IA,51235,43.279316,-96.234214,DOON
102,5059,3,440,35330.37,1,3,3,133,1,5059,2022-11-01,CASEY'S GENERAL STORE #1125 / HUMEST,A,207 FRONT ST,IA,50123,40.860016,-93.499475,HUMESTON
103,4546,35,163,23574.04,4,4,4,444,1,4546,2022-11-01,CASEY'S GENERAL STORE #2303 / GLIDDEN,A,705 IDAHO ST,IA,51443,42.063817,-94.728981,GLIDDEN
104,6147,4,1699,250933.13,2,1,1,211,1,6147,2022-11-01,BANI'S / CEDAR FALLS,A,2128 COLLEGE ST,IA,50613,42.518019,-92.455801,CEDAR FALLS
105,5546,0,451,36929.82,1,3,3,133,1,5546,2022-11-01,CASEY'S GENERAL STORE #2341 / NEWTON,A,3104 1ST AVE E,IA,50208,41.699186,-93.013639,NEWTON
106,6104,7,265,43343.95,3,3,3,333,1,6104,2022-11-01,BREW OIL #33 / STORM LAKE,A,1201 LAKESHORE DR,IA,50588,,,STORM LAKE
107,6059,0,218,22752.69,1,4,4,144,1,6059,2022-11-01,CASEY'S GENERAL STORE #1793 / IOWA FALLS,A,1801 WASHINGTON AVE,IA,50126,42.519662,-93.279976,IOWA FALLS
108,6245,0,2614,186815.0,1,1,1,111,1,6245,2022-11-01,NEIGHBORHOOD LIQUOR HOUSE / ANKENY,A,"833 EAST 1ST STREET, SUITE 102",IA,50021,41.651405,-93.4545,ANKENY
109,3742,6,1001,170906.42,3,2,1,321,1,3742,2022-11-01,WAL-MART 1625 / LEMARS,A,1111 HOLTON DR,IA,51031,42.781021,-96.185199,LE MARS
110,2714,10,992,162971.28,3,2,1,321,1,2714,2022-11-01,HY-VEE / VINTON,A,911 S. K AVE,IA,52349,42.16218,-92.037751,VINTON
111,2683,0,578,51302.0,1,2,3,123,1,2683,2022-11-01,HY-VEE FAST & FRESH / WDM,A,425 S JORDAN CREEK PKWY,IA,50266,41.563134,-93.809467,WEST DES MOINES
112,3521,5,633,343307.44,2,2,1,221,1,3521,2022-11-01,AMERISTAR CASINO / COUNCIL BLUFFS,A,2200 RIVER ROAD,IA,51501,41.242018,-95.909823,COUNCIL BLUFFS
113,5714,122,54,8818.8,4,4,4,444,1,5714,2022-11-01,YESWAY #1031,A,830 NORTH 18TH STREET,IA,52544,40.740003,-92.867958,CENTERVILLE
114,5872,10,201,30620.27,3,4,4,344,1,5872,2022-11-01,THE SNACK SHACK / WATERLOO,A,4335 TEXAS ST,IA,50702,42.453063,-92.306999,WATERLOO
115,4189,6,1169,177725.86,3,2,1,321,1,4189,2022-11-01,FAREWAY STORES #594 / MANCHESTER,A,109 EAST MARION ST,IA,52057,42.482169,-91.457266,MANCHESTER
116,2648,0,8305,1540949.05,1,1,1,111,0,2648,2022-11-01,HY-VEE #4 / WDM,A,555 S 51ST ST,IA,50265,41.561217,-93.77358,WEST DES MOINES
117,4969,4,4133,695817.03,2,1,1,211,0,4969,2022-11-01,LAKE LIQUORS WINE AND SPIRITS,A,910 N 8TH ST W,IA,50428,43.142775,-93.396651,CLEAR LAKE
118,6045,3,1331,76562.5,1,1,2,112,1,6045,2022-11-01,KUM & GO #3156 / CLIVE,A,15590 HICKMAN RD,IA,50325,41.614719,-93.833455,CLIVE
119,6090,3,514,27718.86,1,3,4,134,1,6090,2022-11-01,CIRCLE K #22654125 / PERRY,A,1219 1ST AVE,IA,50220,41.840342,-94.106581,PERRY
120,4157,0,1261,142486.99,1,1,2,112,1,4157,2022-11-01,FAREWAY STORES #993 / NORTH LIBERTY,A,615 WESTWOOD DR   P.O BOX 96,IA,52317,41.741103,-91.608928,NORTH LIBERTY
121,5060,6,1017,109819.03,3,2,2,322,1,5060,2022-11-01,L&M MIGHTY SHOP,A,"504, E BURLINGTON ST",IA,52240,41.657818,-91.52843,IOWA CITY
122,5998,7,320,34994.9,3,3,3,333,1,5998,2022-11-01,WILTON EXPRESS,A,1300 NICOLAUS DR,IA,52778,41.589964,-91.034885,WILTON
123,3660,3,1242,197552.56,1,1,1,111,1,3660,2022-11-01,WAL-MART 2935 / KNOXVILLE,A,814 W BELL AVE,IA,50138,41.306191,-93.107773,KNOXVILLE
124,9047,32,75,75140.1,4,4,2,442,1,9047,2022-11-01,REVELTON DISTILLING COMPANY,I,1400 W CLAY ST,IA,50213,41.041472,-93.787233,OSCEOLA
125,5572,3,459,60442.43,1,3,2,132,1,5572,2022-11-01,CASEY'S GENERAL STORE #2790 / CEDAR RAPIDS,A,588 BOYSON RD NE #110,IA,52402,42.046733,-91.641223,CEDAR RAPIDS
126,3728,10,670,76497.43,3,2,2,322,1,3728,2022-11-01,BREWSKI'S BEVERAGE,A,726 CREEK TOP,IA,51503,41.262317,-95.854829,COUNCIL BLUFFS
127,5081,3,739,74964.34,1,2,2,122,1,5081,2022-11-01,CASEY'S GENERAL STORE #3035 / ATLANT,A,701 POPLAR ST,IA,50022,41.403822,-95.014425,ATLANTIC
128,5990,24,220,26514.27,4,4,4,444,1,5990,2022-11-01,CASEY'S GENERAL STORE #1610 / KNOXVILLE,A,203 S LINCOLN ST,IA,50138,41.31767,-93.109524,KNOXVILLE
129,4638,0,1928,382200.03,1,1,1,111,1,4638,2022-11-01,GD XPRESS / DAVENPORT,A,4607 N PINE ST,IA,52806,41.567504,-90.610249,DAVENPORT
130,4738,4,821,62708.29,2,2,2,222,1,4738,2022-11-01,CASEY'S GENERAL STORE #2284 / COUNCIL BLUFFS,A,"1030, VETERAN MEMORIAL HWY",IA,51501,41.219703,-95.860293,COUNCIL BLUFFS
131,5830,0,439,37406.47,1,3,3,133,1,5830,2022-11-01,CASEY'S GENERAL STORE #1911 / NEWTON,A,1018 1ST AVE E,IA,50208,41.699251,-93.040372,NEWTON
132,6280,182,107,16212.3,4,4,4,444,1,6280,2022-11-01,BP TO GO #1 / CEDAR RAPIDS,A,4830 JOHNSON AVENUE NORTHWEST,IA,52405,41.968371,-91.733381,CEDAR RAPIDS
133,4765,14,111,6316.52,4,4,4,444,1,4765,2022-11-01,KWIK STOP C-STORES / DUBUQUE,A,2335 UNIVERSITY AVE,IA,52001,42.499518,-90.696858,DUBUQUE
134,4402,3,616,51315.56,1,2,3,123,1,4402,2022-11-01,KUM & GO #80 / RIVERSIDE,A,1178 ENTERPRISE DR,IA,52327,41.486572,-91.555044,RIVERSIDE
135,4542,10,304,46402.9,3,3,3,333,1,4542,2022-11-01,CASEY'S GENERAL STORE #2994 / LAUREN,A,520 W MAIN ST,IA,50554,42.846771,-94.855561,LAURENS
136,6119,0,1611,169221.16,1,1,1,111,1,6119,2022-11-01,ALLCOOL LIQUORS / WDM,A,5904 ASHWORTH RD,IA,50266,41.584436,-93.788364,WEST DES MOINES
137,5576,3,239,33362.64,1,4,3,143,1,5576,2022-11-01,CASEY'S GENERAL STORE #3449 / WAPELLO,A,13410 IA HWY 78,IA,52653,41.087806,-91.185031,WAPELLO
138,2201,4,2546,950099.62,2,1,1,211,1,2201,2022-11-01,HAPPY'S WINE & SPIRITS WHOLESALE,A,5925 UNIVERSITY AVE,IA,50613,42.512762,-92.429644,CEDAR FALLS
139,6074,6,226,33099.22,3,4,3,343,1,6074,2022-11-01,HILL COUNTRY CONVENIENCE STORE / COLESBURG,A,317 MAIN ST,IA,52035,42.638971,-91.201967,COLESBURG
140,5745,6,307,38014.34,3,3,3,333,1,5745,2022-11-01,CASEY'S GENERAL STORE #3292,A,1906 3RD AVE SE,IA,50644,42.451425,-91.890214,INDEPENDENCE
141,6152,5,324,61132.37,2,3,2,232,1,6152,2022-11-01,HAWKEYE SMOKE SHOP / FAIRFIELD,A,53 N COURT ST,IA,52556,41.007268,-91.962461,FAIRFIELD
142,2846,55,87,6795.39,4,4,4,444,1,2846,2022-11-01,CVS PHARMACY #8443 / CEDAR RAPIDS,A,3419 16TH AVE SW,IA,52404,41.963516,-91.716615,CEDAR RAPIDS
143,5727,13,567,87336.1,4,2,2,422,1,5727,2022-11-01,ONE STOP SHOP #4 - DENISON,A,306 NORTH 7TH STREET,IA,51442,42.020388,-95.36107,DENISON
144,2587,4,3583,692784.27,2,1,1,211,0,2587,2022-11-01,HY-VEE FOOD STORE / JOHNSTON,A,5750 MERLE HAY ROAD,IA,50131,41.665172,-93.697731,JOHNSTON
145,4272,5,911,96317.59,2,2,2,222,1,4272,2022-11-01,FAREWAY STORES #407 / ESTERVILLE,A,1108 CENTRAL AVE,IA,51334,43.402097,-94.829908,ESTHERVILLE
146,4626,3,1145,70710.29,1,2,2,122,1,4626,2022-11-01,KWIK SHOP #527 / COUNCIL BLUFFS,A,"3632, AVENUE G",IA,51501,41.268067,-95.905957,COUNCIL BLUFFS
147,6249,3,1046,178460.75,1,2,1,121,1,6249,2022-11-01,HY-VEE DOLLAR FRESH / MONTICELLO,A,122 NORTH MAIN STREET,IA,52310,42.238748,-91.183871,MONTICELLO
148,3494,4,2124,2074569.48,2,1,1,211,1,3494,2022-11-01,SAM'S CLUB 6514 / WATERLOO,A,210 EAST TOWER PARK DR,IA,50702,42.456358,-92.352359,WATERLOO
149,4573,3,220,32398.97,1,4,3,143,1,4573,2022-11-01,CASEY'S GENERAL STORE #1330 / HAMBURG,A,1211 WASHINGTON ST,IA,51640,40.605217,-95.654604,HAMBURG
150,5809,66,146,18947.51,4,4,4,444,1,5809,2022-11-01,CASEY'S GENERAL STORE #26 / PERRY,A,2617 WILLIS AVE,IA,50220,41.838465,-94.085866,PERRY
151,4355,13,739,50110.21,4,2,3,423,1,4355,2022-11-01,KUM & GO #124 / STORY CITY,A,1554 BROAD ST,IA,50248,42.187732,-93.575903,STORY CITY
152,4531,10,273,44874.49,3,3,3,333,1,4531,2022-11-01,CASEY'S GENERAL STORE #2626 / AFTON,A,501 N DOUGLAS ST,IA,50830,41.031381,-94.197612,AFTON
153,6261,3,994,211459.36,1,2,1,121,1,6261,2022-11-01,WAUKEE LIQUOR & FOOD MART / WAUKEE,A,763 SE ALICE'S ROAD,IA,50263,41.605236,-93.852922,WAUKEE
154,5642,20,674,41871.6,4,2,3,423,1,5642,2022-11-01,WASPY'S TRUCK STOP,A,2079 HWY 71,IA,50025,41.705438,-94.925086,AUDUBON
155,5211,4,1723,88803.17,2,1,2,212,1,5211,2022-11-01,KUM & GO #129  /  JOHNSTON,A,5225 NW  86TH  ST,IA,50131,41.655881,-93.736395,JOHNSTON
156,5682,0,1268,262793.3,1,1,1,111,1,5682,2022-11-01,AMBYSURE INC / CLINTON,A,1641 S BLUFF BLVD,IA,52732,41.833524,-90.22458,CLINTON
157,5663,0,1168,179218.37,1,2,1,121,1,5663,2022-11-01,LAKE VIEW REDEMPTION & LIQUOR STORE,A,502 5TH ST,IA,51450,42.307787,-95.051532,LAKE VIEW
158,6116,4,1054,143464.17,2,2,2,222,1,6116,2022-11-01,TOBACCO OUTLET PLUS #561 / CEDAR FALLS,A,4116 UNIVERSITY AVE  STE 104-105,IA,50613,42.505909,-92.407111,CEDAR FALLS
159,4828,6,357,62255.05,3,3,2,332,1,4828,2022-11-01,CASEY'S GENERAL STORE #3228 / MARSHALLTOWN,A,916 E MAIN ST,IA,50158,42.049237,-92.896215,MARSHALLTOWN
160,5213,12,174,17718.57,4,4,4,444,1,5213,2022-11-01,GARNER ONE STOP,A,"2506, 280TH  ST",IA,52639,40.552207,-91.429945,MONTROSE
161,10058,0,114,11963.08,1,4,4,144,1,10058,2022-11-01,WEST SIDE GROCERY,A,1802 WEST 7TH STREET,IA,52802,41.526774,-90.60134,DAVENPORT
162,5984,26,337,40011.54,4,3,3,433,1,5984,2022-11-01,CASEY'S GENERAL STORE #3214 / OSKALOOSA,A,413 A AVE W,IA,52577,41.296225,-92.649129,OSKALOOSA
163,5911,5,869,81468.76,2,2,2,222,1,5911,2022-11-01,OLD FIRE LIQUOR / BUFFALO CENTER,A,113 1ST ST NW,IA,50424,43.386755,-93.947595,BUFFALO CENTER
164,6140,3,2220,203097.44,1,1,1,111,1,6140,2022-11-01,ROYAL FOOD & LIQUOR / DES MOINES,A,1443 2ND AVE,IA,50314,41.605229,-93.619783,DES MOINES
165,4953,31,141,19532.28,4,4,4,444,1,4953,2022-11-01,TRI STOP,A,302 HWY 136,IA,52254,41.967498,-90.817528,LOST NATION
166,4837,20,537,26015.53,4,3,4,434,1,4837,2022-11-01,KUM & GO #51 / IOWA CITY,A,323 E BURLINGTON ST,IA,52240,41.657837,-91.530633,IOWA CITY
167,4370,3,1189,60415.05,1,2,2,122,1,4370,2022-11-01,KUM & GO #240 / NORTH AVE NORWALK,A,530 NORTH AVE,IA,50211,41.475381,-93.681862,NORWALK
168,4817,3,393,47565.56,1,3,3,133,1,4817,2022-11-01,CASEY'S GENERAL STORE #3217 / KNOXVILLE,A,"1201, E MAIN ST",IA,50138,41.318981,-93.086255,KNOXVILLE
169,4631,4,1115,114225.72,2,2,2,222,1,4631,2022-11-01,THUNDER RIDGE AMPRIDE,A,2425 WHITETAIL DRIVE,IA,50613,42.539967,-92.475136,CEDAR FALLS
170,10039,0,1934,311814.92,1,1,1,111,1,10039,2022-11-01,LIQUOR LOVERS / ANKENY,A,1510 SOUTH ANKENY BOULEVARD PRAIRIE TRAIL SUITE 106 108,IA,50023,,,ANKENY
171,4584,6,499,25295.48,3,3,4,334,1,4584,2022-11-01,J & C GROCERY / DUMONT,A,611 MAIN ST,IA,50602,42.750551,-92.973022,DUMONT
172,5735,0,1229,178584.82,1,1,1,111,1,5735,2022-11-01,SUPER SAVER LIQUOR -MUSCATINE,A,1510 A ISETT AVENUE,IA,52761,41.439095,-91.043432,MUSCATINE
173,4132,0,722,92799.84,1,2,2,122,1,4132,2022-11-01,CAMANCHE FOOD PRIDE,A,908 7TH AVE,IA,52730,41.789064,-90.257712,CAMANCHE
174,2702,19,291,29814.15,4,3,4,434,1,2702,2022-11-01,HY-VEE GAS #1 / ANKENY,A,414 N ANKENY BLVD,IA,50023,41.735186,-93.600402,ANKENY
175,5193,7,139,20059.7,3,4,4,344,1,5193,2022-11-01,CASEY'S GENERAL STORE #2518 / LOHRVI,A,"404, LOCUST ST",IA,51453,42.267449,-94.553651,LOHRVILLE
176,6305,33,59,6485.62,4,4,4,444,1,6305,2022-11-01,JET STOP HOUGHTON / HOUGHTON,A,512 MAIN STREET,IA,52631,40.811941,-91.100819,HOUGHTON
177,2633,0,16596,11788529.03,1,1,1,111,0,2633,2022-11-01,HY-VEE #3 / BDI / DES MOINES,A,3221 SE 14TH ST,IA,50320,41.553941,-93.596756,DES MOINES
178,5072,5,388,54688.69,2,3,3,233,1,5072,2022-11-01,PEP STOP,A,"901, E WASHINGTON ST",IA,52641,40.964231,-91.541171,MOUNT PLEASANT
179,4786,6,770,60313.47,3,2,2,322,1,4786,2022-11-01,CASEY'S GENERAL STORE #1706 / WINTERSET,A,1021 N 1ST ST,IA,50273,41.343626,-94.013479,WINTERSET
180,3952,21,3412,1323643.61,4,1,1,411,0,3952,2022-11-01,LOT-A-SPIRITS,A,3780 STATE ST,IA,52722,41.529606,-90.480749,BETTENDORF
181,4195,6,1238,79012.28,3,1,2,312,1,4195,2022-11-01,FAREWAY STORES #792 / TOLEDO,A,1005 S COUNTY LINE RD,IA,52342,41.984302,-92.581697,TOLEDO
182,5092,0,2019,81151.13,1,1,2,112,1,5092,2022-11-01,KUM & GO #3035 / WEST DES MOINES,A,7265 VISTA DR,IA,50265,41.589057,-93.807839,WEST DES MOINES
183,5000,4,457,67030.43,2,3,2,232,1,5000,2022-11-01,CASEY'S GENERAL STORE #3319 / NEVADA,A,1800 SOUTH B AVE,IA,50201,42.009808,-93.435935,NEVADA
184,6047,5,456,40115.07,2,3,3,233,1,6047,2022-11-01,CORNER STOP / WASHINGTON,A,100 E MADISON ST,IA,52353,41.296451,-91.691363,WASHINGTON
185,2699,0,148,16719.21,1,4,4,144,1,2699,2022-11-01,HY-VEE C-STORE #2 - ANKENY,A,1710 SW ORALABOR ROAD,IA,50023,41.703262,-93.624634,ANKENY
186,5064,0,559,69006.37,1,3,2,132,1,5064,2022-11-01,CASEY'S GENERAL STORE #2777 / FAIRFA,A,"65, WILLIAMS BLVD",IA,52228,41.929161,-91.779036,FAIRFAX
187,4269,0,2769,306253.48,1,1,1,111,1,4269,2022-11-01,TIPTON FAMILY FOODS,A,610 CEDAR ST,IA,52772,41.771753,-91.128389,TIPTON
188,5471,10,1939,294318.11,3,1,1,311,1,5471,2022-11-01,WORLD LIQUOR & TOBACCO + VAPORS,A,1030 8TH ST,IA,50036,42.063831,-93.876918,BOONE
189,4015,4,2385,396172.14,2,1,1,211,1,4015,2022-11-01,WAL-MART 0749 / AMES,A,3015 GRAND AVE,IA,50010,42.052074,-93.620678,AMES
190,4478,129,885,123516.85,4,2,2,422,1,4478,2022-11-01,U S GAS,I,3000 SW 9TH ST,IA,50315,41.557948,-93.625685,DES MOINES
191,6125,0,1387,209680.65,1,1,1,111,1,6125,2022-11-01,GATEWAY MART / CLINTON,A,1930 ROOSEVELT ST,IA,52732,41.86723,-90.180476,CLINTON
192,5415,6,1224,215855.69,3,1,1,311,1,5415,2022-11-01,PRIME MART 7 / WATERLOO,A,1309 LAFAYETTE ST,IA,50703,42.494092,-92.3272,WATERLOO
193,4823,3,342,54002.99,1,3,3,133,1,4823,2022-11-01,CASEY'S GENERAL STORE #3223 / CRESTON,A,903 N SUMNER AVE,IA,50801,41.066812,-94.372568,CRESTON
194,6319,6,193,19877.82,3,4,4,344,1,6319,2022-11-01,SERGEANT BLUFF PUMP 'N PAK / SERGEANT BLUFF,A,200 1ST STREET,IA,51054,42.400736,-96.368389,SERGEANT BLUFF
195,6023,0,715,28768.94,1,2,4,124,1,6023,2022-11-01,VALLEY WEST CORNER STORE / WDM,A,1400 VALLEY WEST DR,IA,50266,41.594084,-93.751964,WEST DES MOINES
196,6109,83,102,3785.36,4,4,4,444,1,6109,2022-11-01,MOES MART #11 / SIOUX CENTER,A,402 N MAIN AVE,IA,51250,43.08113,-96.175585,SIOUX CENTER
197,4024,0,780,125953.09,1,2,2,122,1,4024,2022-11-01,WAL-MART 1546 / IOWA FALLS,A,840 S OAK,IA,50126,42.502655,-93.262439,IOWA FALLS
198,6038,13,257,36594.07,4,4,3,443,1,6038,2022-11-01,CASEY'S GENERAL STORE #2880 / WATERLOO,A,1604 LA PORTE RD,IA,50702,42.470874,-92.32269,WATERLOO
199,6208,10,196,21209.54,3,4,4,344,1,6208,2022-11-01,HY-VEE FAST AND FRESH / GRIMES,A,1401 1ST STREET,IA,50111,,,GRIMES
200,4130,5,211,26066.61,2,4,4,244,1,4130,2022-11-01,"BOYD GROCERY, INC.",A,20611 HWY 1 N,IA,52565,40.746003,-91.958017,KEOSAUQUA
201,3814,0,1074,3506556.78,1,2,1,121,1,3814,2022-11-01,COSTCO WHOLESALE #788 / WDM,A,7205 MILLS CIVIC PKWY,IA,50266,41.561432,-93.805526,WEST DES MOINES
202,4366,6,1165,48277.14,3,2,3,323,1,4366,2022-11-01,KUM & GO #137 / TIFFIN,A,101 VILLAGE DR,IA,52340,41.69722,-91.665813,TIFFIN
203,2578,6,3673,494113.01,3,1,1,311,0,2578,2022-11-01,HY-VEE / CHARLES CITY,A,901 KELLY ST,IA,50616,,,CHARLES CITY
204,4131,0,1450,306178.44,1,1,1,111,1,4131,2022-11-01,FAREWAY STORES #933 / URBANDALE,A,8450 MEREDITH DR,IA,50322,41.643829,-93.734312,URBANDALE
205,4182,3,1000,191537.68,1,2,1,121,1,4182,2022-11-01,FAREWAY STORES #008 / DYERSVILLE,A,1207  12TH AVE SE,IA,52040,42.475277,-91.111904,DYERSVILLE
206,3944,3,1484,1595586.82,1,1,1,111,1,3944,2022-11-01,SAM'S CLUB 4973 / DUBUQUE,A,4400 ASBURY RD,IA,52002,42.515299,-90.738767,DUBUQUE
207,4808,3,800,109111.28,1,2,2,122,1,4808,2022-11-01,CB QUICK STOP / COUNCIL BLUFFS,A,"3500, AVE A",IA,51501,41.262813,-95.902428,COUNCIL BLUFFS
208,6127,10,363,50084.82,3,3,3,333,1,6127,2022-11-01,CORNER MART / MARION,A,998 8TH AVE,IA,52302,42.034175,-91.599679,MARION
209,5896,3,399,26581.5,1,3,4,134,1,5896,2022-11-01,CASEY'S GENERAL STORE #1126 / WYOMING,A,204 E MAIN ST,IA,52362,42.058865,-91.003756,WYOMING
210,6176,4,2532,190180.69,2,1,1,211,1,6176,2022-11-01,MINI-MART / CEDAR FALLS,A,1420 WEST 1ST STREET,IA,50613,42.537839,-92.462826,CEDAR FALLS
211,5730,6,676,91148.49,3,2,2,322,1,5730,2022-11-01,JIM'S FOOD,A,437 SULLIVAN AVENUE,IA,50701,42.487051,-92.355914,WATERLOO
212,4163,0,660,132641.11,1,2,2,122,1,4163,2022-11-01,FAREWAY STORES #461 / STORM LAKE,A,731 SENECA ST,IA,50588,42.646379,-95.196856,STORM LAKE
213,3889,4,1119,216419.12,2,2,1,221,1,3889,2022-11-01,WAL-MART 1005 / WAVERLY,A,700  29 ST SW,IA,50677,42.700321,-92.478899,WAVERLY
214,6003,4,290,39855.76,2,3,3,233,1,6003,2022-11-01,CASEY'S GENERAL STORE #2298 / AMES,A,428 LINCOLN WAY,IA,50010,42.022916,-93.616633,AMES
215,5017,3,1252,97150.21,1,1,2,112,1,5017,2022-11-01,LANSING IGA,A,417 MAIN ST,IA,52151,43.36182,-91.219221,LANSING
216,2562,3,1748,362873.46,1,1,1,111,1,2562,2022-11-01,HY-VEE FOOD STORE / FORT DODGE,A,115 SOUTH 29TH ST,IA,50501,42.504742,-94.158248,FORT DODGE
217,4942,3,526,64976.59,1,3,2,132,1,4942,2022-11-01,EAST VILLAGE PANTRY,A,333 E GRAND AVE,IA,50309,41.590275,-93.61339,DES MOINES
218,5226,0,1288,164616.77,1,1,1,111,1,5226,2022-11-01,KC BROTHERS,A,214 MYRTLE ST,IA,52802,41.521586,-90.589149,DAVENPORT
219,4882,13,720,42813.36,4,2,3,423,1,4882,2022-11-01,CASEY'S GENERAL STORE #3026 / ST CHARLES,A,209 E MAIN ST,IA,50240,41.288487,-93.803774,ST CHARLES
220,5062,12,432,29602.53,4,3,4,434,1,5062,2022-11-01,CASEY'S GENERAL STORE #2318 / MONTRO,A,"111, MAIN ST",IA,52639,40.532149,-91.415097,MONTROSE
221,5329,0,359,67326.48,1,3,2,132,1,5329,2022-11-01,DIVA & TEJ GAS & FOOD,A,2293 HWY 30,IA,52751,41.828096,-90.646426,GRAND MOUNDS
222,6179,297,11,1183.44,4,4,4,444,1,6179,2022-11-01,BP TO GO - 1010  / MARION,I,1010 E POST RD,IA,52302,42.020154,-91.598281,MARION
223,5186,13,497,62587.81,4,3,2,432,1,5186,2022-11-01,CASEY'S GENERAL STORE #3452 / WEST U,A,"102, E  BRADFORD ST",IA,52175,42.964219,-91.806405,WEST UNION
224,5502,5,373,59333.44,2,3,2,232,1,5502,2022-11-01,CASEY'S GENERAL STORE #3566 / PELLA,A,509 MAIN ST,IA,50219,41.403485,-92.91652,PELLA
225,6149,6,787,100194.94,3,2,2,322,1,6149,2022-11-01,OELWEIN LIQUOR,A,1011 S FREDERICK,IA,50662,42.663529,-91.913571,OELWEIN
226,3833,3,1576,274467.12,1,1,1,111,1,3833,2022-11-01,WAL-MART 3394 / ATLANTIC,A,1905 EAST 7TH ST,IA,50022,41.403855,-94.986241,ATLANTIC
227,4200,4,1120,196617.48,2,2,1,221,1,4200,2022-11-01,FAREWAY STORES #019 / SIOUX CITY,A,4016 INDIAN HILLS DR,IA,51108,42.538587,-96.373256,SIOUX CITY
228,4147,4,1761,231405.38,2,1,1,211,1,4147,2022-11-01,FAREWAY STORES #974 / CEDAR FALLS,A,214 N MAGNOLIA DR,IA,50613,42.539053,-92.474692,CEDAR FALLS
229,4510,66,376,39970.76,4,3,3,433,1,4510,2022-11-01,CASEY'S GENERAL STORE #1007 / MALVERN,A,701 MAIN ST,IA,51551,41.005672,-95.585127,MALVERN
230,5413,6,446,35868.78,3,3,3,333,1,5413,2022-11-01,LIL' CHUBS CORNER STOP,A,712 S OAK ST,IA,51240,43.30226,-96.430827,INWOOD
231,5637,14,144,39887.66,4,4,3,443,1,5637,2022-11-01,CATFISH CHARLIE'S,A,1630 EAST 16TH ST,IA,52001,,,DUBUQUE
232,5764,21,142,18847.65,4,4,4,444,1,5764,2022-11-01,CASEY'S GENERAL STORE #1484 / MUSCATINE,A,1111 OREGON ST,IA,52761,41.40425,-91.063256,MUSCATINE
233,4887,0,463,36280.06,1,3,3,133,1,4887,2022-11-01,KUM & GO #66 / WEST DES MOINES,A,5308 UNIVERSITY AVE,IA,50266,41.600459,-93.778729,WEST DES MOINES
234,5820,12,78,12557.09,4,4,4,444,1,5820,2022-11-01,CASEY'S GENERAL STORE #57 / EDDYVILLE,A,108 S MERINO AVE,IA,52553,41.157522,-92.629919,EDDYVILLE
235,5834,7,426,27340.75,3,3,4,334,1,5834,2022-11-01,CASEY'S GENERAL STORE #1417 / IOWA FALLS,A,1223 OAK ST,IA,50126,42.528303,-93.263543,IOWA FALLS
236,5280,4,231,41864.84,2,4,3,243,1,5280,2022-11-01,YESWAY STORE # 10011/ MASON CITY,A,1920 FEDERAL AVE S,IA,50401,43.133204,-93.201072,MASON CITY
237,6313,3,1310,107230.64,1,1,2,112,1,6313,2022-11-01,DANNYS TOBACCO & LIQUOR / GUTTENBERG,A,531 U.S. 52,IA,52052,,,GUTTENBERG
238,2669,3,776,99774.18,1,2,2,122,1,2669,2022-11-01,HY-VEE / CORYDON,A,"105, E JACKSON ST",IA,50060,40.758432,-93.31744,CORYDON
239,5966,3,422,23027.1,1,3,4,134,1,5966,2022-11-01,CASEY'S GENERAL STORE #22 / CHARITON,A,1421 COURT AVE,IA,50049,41.014477,-93.315598,CHARITON
240,5362,6,1294,151946.53,3,1,2,312,1,5362,2022-11-01,CROSSROADS WINE & SPIRITS LLC,A,117 IOWA AVE,IA,51529,41.854492,-95.602428,DUNLAP
241,2572,4,11064,1096013.12,2,1,1,211,0,2572,2022-11-01,HY-VEE FOOD STORE / CEDAR FALLS,A,6301 UNIVERSITY,IA,50613,42.512789,-92.435236,CEDAR FALLS
242,4717,7,164,28697.72,3,4,4,344,1,4717,2022-11-01,WALGREENS #05512 / BETTENDORF,A,3425 MIDDLE RD,IA,52722,41.550721,-90.485404,BETTENDORF
243,6221,6,908,162665.25,3,2,1,321,1,6221,2022-11-01,HY-VEE DOLLAR FRESH / ORANGE CITY,A,1301 8TH STREET SOUTHEAST,IA,51041,42.997499,-96.041515,ORANGE CITY
244,5863,6,668,64767.91,3,2,2,322,1,5863,2022-11-01,K-ZAR INC - WATERLOO,A,1761 INDEPENDENCE AVENUE,IA,50707,42.498404,-92.302514,WATERLOO
245,4235,3,529,85733.4,1,3,2,132,1,4235,2022-11-01,FAREWAY STORES #395 / WEBSTER CITY,A,942  2ND ST,IA,50595,42.469488,-93.827718,WEBSTER CITY
246,5936,108,872,42645.57,4,2,3,423,1,5936,2022-11-01,CJ'S CONVENIENCE STORE / ELKADER,I,107 1ST ST SW,IA,52043,42.85389,-91.405293,ELKADER
247,5654,3,43,33432.42,1,4,3,143,1,5654,2022-11-01,TEQUILA WINE & SPIRITS / KALONA,A,316 B AVENUE,IA,52247,41.483039,-91.708007,KALONA
248,6046,7,529,57363.48,3,3,2,332,1,6046,2022-11-01,CASEY'S GENERAL STORE #2150 / WDM,A,2125 GRAND AVE,IA,50265,41.56575,-93.734597,WEST DES MOINES
249,6219,7,206,34651.62,3,4,3,343,1,6219,2022-11-01,CASEY'S #4025 / MUSCATINE,A,4701 HWY 61,IA,52761,,,MUSCATINE
250,5621,0,434,54638.63,1,3,3,133,1,5621,2022-11-01,SUN MART,A,2920 WEST LOCUST STREET,IA,52804,41.538161,-90.619947,DAVENPORT
251,4985,20,191,18513.07,4,4,4,444,1,4985,2022-11-01,CASEY'S GENERAL STORE #2519 / MERRILL,A,101 FIRST ST,IA,51038,42.71706,-96.247914,MERRILL
252,4791,48,64,13835.58,4,4,4,444,1,4791,2022-11-01,WALGREENS #05470 / SIOUX CITY,A,4650 MORNINGSIDE AVE,IA,51106,42.470416,-96.347086,SIOUX CITY
253,5599,6,1786,305039.69,3,1,1,311,1,5599,2022-11-01,KWIK STOP 4,A,515 BROADWAY ST,IA,50703,42.510792,-92.345106,WATERLOO
254,6329,3,273,38174.82,1,3,3,133,1,6329,2022-11-01,8 SECONDS / SIDNEY,A,416 CLAY STREET,IA,51652,40.746732,-95.647194,SIDNEY
255,4289,3,496,50510.13,1,3,3,133,1,4289,2022-11-01,FAREWAY STORES #062 / WAUKON,A,777  11TH AVE SW,IA,52172,43.256623,-91.484321,WAUKON
256,5857,0,432,43559.59,1,3,3,133,1,5857,2022-11-01,EZ STOP II - DUBUQUE,A,700 RHOMBERG AVENUE,IA,52001,42.515809,-90.663427,DUBUQUE
257,4449,4,1034,51435.96,2,2,3,223,1,4449,2022-11-01,KUM & GO #121 / URBANDALE,A,12041 DOUGLAS PKWY,IA,50322,41.629623,-93.782995,URBANDALE
258,5553,0,345,45183.7,1,3,3,133,1,5553,2022-11-01,CASEY'S GENERAL STORE #2222 / CLINTON,A,1107 13TH AVE N,IA,52732,41.85933,-90.211856,CLINTON
259,3447,4,1949,2061711.49,2,1,1,211,1,3447,2022-11-01,SAM'S CLUB 6432 / SIOUX CITY,A,4201 S. YORK ST.,IA,51106,42.43407,-96.37082,SIOUX CITY
260,5210,3,2274,200927.48,1,1,1,111,1,5210,2022-11-01,DING'S HONK'N HOLLER,A,"900, E  WASHINGTON  ST",IA,51632,40.739231,-95.027238,CLARINDA
261,6021,10,272,20010.49,3,3,4,334,1,6021,2022-11-01,CASEY'S GENERAL STORE #2315 / CORYDON,A,220 N WASHINGTON ST,IA,50060,40.759185,-93.318067,CORYDON
262,5632,3,516,71379.92,1,3,2,132,1,5632,2022-11-01,ONE STOP SHOP,A,700 W ELM AVE,IA,50574,42.732603,-94.679177,POCAHONTAS
263,4613,7,211,29819.18,3,4,4,344,1,4613,2022-11-01,SPARKY'S ONE STOP / CARROLL,A,402 E 6TH ST,IA,51401,42.064428,-94.862532,CARROLL
264,2576,0,5713,556992.48,1,1,1,111,0,2576,2022-11-01,HY-VEE WINE AND SPIRITS / STORM LAKE,A,1250 N LAKE ST,IA,50588,42.653184,-95.200758,STORM LAKE
265,2478,4,1182,215761.43,2,2,1,221,1,2478,2022-11-01,PRAIRIE MEADOWS,A,ONE PRAIRIE MEADOWS DRIVE,IA,50009,,,ALTOONA
266,4701,59,40,6705.3,4,4,4,444,1,4701,2022-11-01,WALGREENS #11193 / BOONE,A,310 STORY ST,IA,50036,42.059115,-93.879992,BOONE
267,4698,5,1411,164116.99,2,1,1,211,1,4698,2022-11-01,QUALITY QUICK STOP,A,201 WEST BURLINGTIN AVE.,IA,52556,41.006639,-91.965379,FAIRFIELD
268,2708,4,258,27353.12,2,4,4,244,1,2708,2022-11-01,HY-VEE FAST AND FRESH - WINDSOR HEIGHTS,A,7220 HICKMAN RD,IA,50324,41.614647,-93.717442,WINDSOR HEIGHTS
269,5972,6,188,19645.16,3,4,4,344,1,5972,2022-11-01,CASEY'S GENERAL STORE #1623 / INDIANOLA,A,607 N JEFFERSON WAY,IA,50125,41.366154,-93.558407,INDIANOLA
270,5744,19,56,7275.34,4,4,4,444,1,5744,2022-11-01,CASEY'S GENERAL STORE #1624 / WASHINGTON,A,1002 W MADISON ST,IA,52353,41.296576,-91.704095,WASHINGTON
271,3723,6,4692,199993.29,3,1,1,311,0,3723,2022-11-01,J D SPIRITS LIQUOR,A,1023  9TH ST,IA,51040,42.025841,-96.095845,ONAWA
272,4896,3,493,57176.08,1,3,2,132,1,4896,2022-11-01,BARRYS MINI MART,A,"403, CHESTNUT ST",IA,52146,43.200579,-91.152756,HARPERS FERRY
273,5575,3,510,50737.51,1,3,3,133,1,5575,2022-11-01,CASEY'S GENERAL STORE #2919 / MARION,A,340 MARION BLVD,IA,52302,42.030005,-91.613561,MARION
274,5204,3,652,99848.11,1,2,2,122,1,5204,2022-11-01,QUIK STOP  /  BURLINGTON,A,1812 OSBORN ST,IA,52601,40.826163,-91.112658,BURLINGTON
275,5786,6,564,45613.72,3,2,3,323,1,5786,2022-11-01,CASEY'S GENERAL STORE #2779 / CORALVILLE,A,1987 2ND ST,IA,52241,41.679197,-91.590813,CORALVILLE
276,2561,0,4919,1269605.67,1,1,1,111,0,2561,2022-11-01,HY-VEE FOOD STORE / FLEUR / DSM,A,4605 FLEUR DRIVE,IA,50321,41.542748,-93.644943,DES MOINES
277,6327,0,186,14999.41,1,4,4,144,1,6327,2022-11-01,PRIMESTAR / MARENGO,A,395 WESTERN AVENUE,IA,52301,41.792953,-92.074374,MARENGO
278,6282,31,95,10217.93,4,4,4,444,1,6282,2022-11-01,JET STOP NEW LONDON / NEW LONDON,A,301 WEST MAIN STREET,IA,52645,40.925952,-91.404551,NEW LONDON
279,3981,6,1269,214095.1,3,1,1,311,1,3981,2022-11-01,WAL-MART 1152 / SIOUX CENTER,A,255 16TH ST SW,IA,51250,43.060881,-96.179835,SIOUX CENTER
280,5673,17,229,22644.26,4,4,4,444,1,5673,2022-11-01,CASEY'S GENERAL STORE #2821 / GLADBROOK,A,201 8TH ST,IA,50635,42.181324,-92.718164,GLADBROOK
281,6101,3,1753,158838.46,1,1,1,111,1,6101,2022-11-01,BREW OIL #26 / POCAHONTAS,A,14 E ELM AVE,IA,50574,42.732607,-94.667311,POCAHONTAS
282,4310,0,1108,101759.99,1,2,2,122,1,4310,2022-11-01,FAREWAY STORES #502 / CHEROKEE,A,205 WEST BLUFF ST,IA,51012,42.75508,-95.551866,CHEROKEE
283,4271,3,1252,162401.61,1,1,1,111,1,4271,2022-11-01,FAREWAY STORES #827 / CENTERVILLE,A,305 S 18TH ST,IA,52544,40.731138,-92.86793,CENTERVILLE
284,4246,3,862,123463.32,1,2,2,122,1,4246,2022-11-01,FAREWAY STORES #938 / SHENANDOAH,A,1007 S FREMONT ST,IA,51601,40.757418,-95.385142,SHENANDOAH
285,6243,6,846,140651.61,3,2,2,322,1,6243,2022-11-01,HY-VEE DOLLAR FRESH / INDEPENDENCE,A,1975 3 ELMS ROAD,IA,50644,42.456588,-91.886923,INDEPENDENCE
286,5592,6,956,48415.08,3,2,3,323,1,5592,2022-11-01,HUBERS STORE,A,101 MAIN STREET,IA,52144,43.14339,-91.932448,FORT ATKINSON
287,5326,0,1848,242288.85,1,1,1,111,1,5326,2022-11-01,ALS LIQUOR,A,215 W. MILWAUKEE AVE,IA,50588,42.647492,-95.202405,STORM LAKE
288,5640,0,288,47777.12,1,3,3,133,1,5640,2022-11-01,CASEY'S GENERAL STORE #3371 / NEW HARTFORD,A,33000 HWY 57,IA,50660,42.565286,-92.632903,NEW HARTFORD
289,5421,13,243,42756.9,4,4,3,443,1,5421,2022-11-01,YESWAY # 1009/ HARLAN,A,618 DURANT STREET,IA,51537,41.656803,-95.318597,HARLAN
290,5582,6,253,39508.87,3,4,3,343,1,5582,2022-11-01,CASEY'S GENERAL STORE #1398 / ROLAND,A,201 E MAPLE,IA,50236,42.166382,-93.500045,ROLAND
291,5550,5,519,39471.42,2,3,3,233,1,5550,2022-11-01,CASEY'S GENERAL STORE #2764 / HIAWATHA,A,780 N CENTER POINT RD,IA,52233,42.046257,-91.681892,HIAWATHA
292,5817,20,304,29878.9,4,3,4,434,1,5817,2022-11-01,CASEY'S GENERAL STORE #1950 / GRINNELL,A,217 6TH AVE,IA,50112,41.746178,-92.733666,GRINNELL
293,5886,0,2386,259692.34,1,1,1,111,1,5886,2022-11-01,BEECHER LIQUOR / DUBUQUE,A,1691 ASBURY RD,IA,52001,42.500775,-90.696886,DUBUQUE
294,5941,3,2622,303856.17,1,1,1,111,1,5941,2022-11-01,PRIME MART - CEDAR FALLS,A,2728 CENTER ST,IA,50613,42.561054,-92.455972,CEDAR FALLS
295,6156,3,774,110625.66,1,2,2,122,1,6156,2022-11-01,LUXEMBURG LIQUOR TOBACCO & GAS,A,101 W MAIN ST,IA,52056,42.602542,-91.074618,LUXEMBURG
296,5676,4,1762,246525.26,2,1,1,211,1,5676,2022-11-01,FAMILY PANTRY,A,4538 LOWER BEAVER RD,IA,50310,41.63865,-93.66587,DES MOINES
297,4266,3,377,57928.86,1,3,2,132,1,4266,2022-11-01,WAL-MART 1683 / SHENANDOAH,A,705 S FREMONT,IA,51601,40.760282,-95.385114,SHENANDOAH
298,4196,6,1005,453581.95,3,2,1,321,1,4196,2022-11-01,FAREWAY STORES #987 / DAVENPORT,A,1635 WEST 53RD ST,IA,52806,41.574438,-90.598191,DAVENPORT
299,5874,35,150,16491.52,4,4,4,444,1,5874,2022-11-01,KWIK STOP FOOD MART / DUBUQUE,A,4039 PENNSYLVANIA AVE,IA,52001,42.500628,-90.743028,DUBUQUE
300,4565,20,338,35262.74,4,3,3,433,1,4565,2022-11-01,KUM & GO #228 / SIOUX CITY,A,1925 S LAKEPORT ST,IA,51106,42.469008,-96.346548,SIOUX CITY
301,4104,4,484,94061.59,2,3,2,232,1,4104,2022-11-01,FAREWAY STORES #491 / MASON CITY,A,400 NORTH DELAWARE AVE,IA,50401,43.155945,-93.199494,MASON CITY
302,6310,26,98,10701.98,4,4,4,444,1,6310,2022-11-01,JET STOP BIRMINGHAM / BIRMINGHAM,A,121 SOUTH HWY 1,IA,52535,40.878617,-91.948629,BIRMINGHAM
303,5366,6,1200,217943.71,3,2,1,321,1,5366,2022-11-01,LIQUOR BEER & TOBACCO OUTLET,A,1908 CLARK ST,IA,50616,43.059134,-92.661881,CHARLES CITY
304,2685,5,717,121337.99,2,2,2,222,1,2685,2022-11-01,HY-VEE -GARNER,A,255 WEST US HWY 18,IA,50438,43.105846,-93.603895,GARNER
305,4663,21,316,40985.58,4,3,3,433,1,4663,2022-11-01,CASEY'S GENERAL STORE #3077 / PEOSTA,A,236 PEOSTA ST,IA,52068,42.443954,-90.85041,PEOSTA
306,5437,3,1356,105966.41,1,1,2,112,1,5437,2022-11-01,GREAT PASTIMES,A,228 N MAIN ST.,IA,52310,42.240132,-91.183413,MONTICELLO
307,2630,0,1182,238230.89,1,2,1,121,1,2630,2022-11-01,HY-VEE DRUGSTORE #2 / WDM,A,1010  60TH ST,IA,50266,41.584979,-93.790534,WEST DES MOINES
308,3682,5,832,118036.35,2,2,2,222,1,3682,2022-11-01,JUMBO'S,A,110 E MAIN ST,IA,50483,43.088336,-93.990305,WESLEY
309,2532,0,4071,551067.99,1,1,1,111,0,2532,2022-11-01,HY-VEE FOOD STORE #2 / DES MOINES,A,2540 E EUCLID,IA,50317,41.627827,-93.56955,DES MOINES
310,6345,3,1023,72428.01,1,2,2,122,1,6345,2022-11-01,ROUND WINDOW LIQUOR / KNOXVILLE,A,701 WEST PLEASANT STREET,IA,50138,41.320746,-93.105726,KNOXVILLE
311,5133,6,571,72070.74,3,2,2,322,1,5133,2022-11-01,DON'S FOOD CENTER,A,"102, ALBANY AVE NE",IA,51041,43.00638,-96.056723,ORANGE CITY
312,4972,3,1035,45234.44,1,2,3,123,1,4972,2022-11-01,QUILLINS QUALITY FOODS MONONA,A,808 S MAIN ST,IA,52159,43.044875,-91.389805,MONONA
313,6325,5,53,3317.54,2,4,4,244,1,6325,2022-11-01,HY-VEE GAS / NEWTON,A,1421 1ST AVENUE EAST,IA,50208,41.699161,-93.034661,NEWTON
314,5849,4,498,70651.86,2,3,2,232,1,5849,2022-11-01,SUPER QUICK STOP - COUNCIL BLUFFS,A,2800 TWIN CITY DR. SUITE 10,IA,51501,41.216437,-95.889605,COUNCIL BLUFFS
315,4703,20,267,40339.03,4,3,3,433,1,4703,2022-11-01,WALGREENS #00910 / SIOUX CITY,A,100 PIERCE ST,IA,51101,42.490838,-96.404914,SIOUX CITY
316,5407,7,283,30398.9,3,3,4,334,1,5407,2022-11-01,CASEY'S GENERAL STORE # 2528/ WILLIAMSBURG,A,602 S HIGHLAND,IA,52361,41.660159,-92.007463,WILLIAMSBURG
317,4912,10,502,35792.55,3,3,3,333,1,4912,2022-11-01,CASEY'S GENERAL STORE #2531 / ELDRIDGE,A,"840, E LE CLAIRE RD",IA,52748,41.654692,-90.572547,ELDRIDGE
318,3726,3,1031,163871.36,1,2,1,121,1,3726,2022-11-01,WAL-MART 1285 / OTTUMWA,A,1940 VENTURE DR,IA,52501,41.014512,-92.457026,OTTUMWA
319,4457,6,656,67691.18,3,2,2,322,1,4457,2022-11-01,KUM & GO #422 / IOWA CITY,A,731 S RIVERSIDE DR,IA,52246,,,IOWA CITY
320,4362,17,295,31502.88,4,3,3,433,1,4362,2022-11-01,KUM & GO #135 / POLK CITY,A,303 W BROADWAY ST,IA,50226,41.772214,-93.714431,POLK CITY
321,6111,73,58,3034.54,4,4,4,444,1,6111,2022-11-01,MOES MART #13 / CASEY,A,501 MCPHERSON STREET,IA,50048,41.505247,-94.51928,CASEY
322,3565,6,1069,95807.25,3,2,2,322,1,3565,2022-11-01,HARTIG DRUG STORE #10 / IOWA CITY,A,701 MORMON TREK BLVD,IA,52246,41.651984,-91.574025,IOWA CITY
323,5515,3,811,146768.05,1,2,2,122,1,5515,2022-11-01,FINE LIQUOR & TOBACCO,A,821 ALBIA RD STE B,IA,52501,41.008494,-92.433678,OTTUMWA
324,4429,5,484,42673.35,2,3,3,233,1,4429,2022-11-01,KUM & GO #32 / COLFAX,A,1200 N WALNUT ST,IA,50054,41.686844,-93.247234,COLFAX
325,6007,4,615,34512.52,2,2,3,223,1,6007,2022-11-01,CASEY'S GENERAL STORE #1910 / JOHNSTON,A,6110 MERLE HAY RD,IA,50131,41.671752,-93.697682,JOHNSTON
326,5516,13,130,9936.11,4,4,4,444,1,5516,2022-11-01,QUIK N HANDI III,A,710 WASHBURN AVE,IA,50650,42.600544,-91.647575,LAMONT
327,4802,4,693,132994.92,2,2,2,222,1,4802,2022-11-01,WALGREENS #07452 / DES MOINES,A,4415 DOUGLAS AVE,IA,50310,41.629491,-93.678966,DES MOINES
328,6182,252,28,3720.78,4,4,4,444,1,6182,2022-11-01,BP TO GO - 250 / CEDAR RAPIDS,I,250 16TH AVENUE,IA,52404,41.961645,-91.667665,CEDAR RAPIDS
329,6100,5,630,77850.91,2,2,2,222,1,6100,2022-11-01,MOES MART #3 / COUNCIL BLUFFS,A,154 BENNETT AVE,IA,51503,41.252794,-95.820329,COUNCIL BLUFFS
330,5538,6,403,43953.29,3,3,3,333,1,5538,2022-11-01,CASEY'S GENERAL STORE #2490 / STORY CITY,A,1625 E BROAD ST,IA,50248,42.187737,-93.574222,STORY CITY
331,5128,4,1386,198423.22,2,1,1,211,1,5128,2022-11-01,PRICE CHOPPER  /  BEAVER #1310,A,1819 BEAVER AVE,IA,50310,41.610987,-93.672995,DES MOINES
332,3663,4,1334,205629.67,2,1,1,211,1,3663,2022-11-01,WAL-MART 1496 / WATERLOO,A,1334 FLAMMANG DR,IA,50702,42.459968,-92.33013,WATERLOO
333,5773,20,432,31040.0,4,3,4,434,1,5773,2022-11-01,CASEY'S GENERAL STORE #2239 / INDEPENDENCE,A,1200 5TH AVE NE,IA,50644,42.479996,-91.889442,INDEPENDENCE
334,5615,3,1403,52251.13,1,1,3,113,1,5615,2022-11-01,CASEY'S GENERAL STORE #2520 / GRIMES,A,206 E 1ST ST,IA,50111,41.688401,-93.793238,GRIMES
335,5303,6,442,89834.38,3,3,2,332,1,5303,2022-11-01,CASEY'S GENERAL STORE # 3508/ MARSHA,A,108 IOWA AVE W,IA,50158,42.007051,-92.915786,MARSHALLTOWN
336,3879,6,801,181086.3,3,2,1,321,1,3879,2022-11-01,TARGET STORE T-1800 / SIOUX CITY,A,5775 SUNNYBROOK DR,IA,51106,42.449103,-96.332514,SIOUX CITY
337,4949,0,515,57549.2,1,3,2,132,1,4949,2022-11-01,RIVER DRIVE SMOKE SHOP,A,"828, W RIVER DR",IA,52802,41.520239,-90.585653,DAVENPORT
338,4582,5,1090,259058.52,2,2,1,221,1,4582,2022-11-01,JIFFY #926 / SPIRIT LAKE,A,"2402, 17TH ST",IA,51360,43.42282,-95.126585,SPIRIT LAKE
339,4659,4,259,36864.87,2,4,3,243,1,4659,2022-11-01,CASEY'S GENERAL STORE #2802 / CONRAD,A,409 E CENTER,IA,50621,42.224536,-92.868874,CONRAD
340,6308,5,609,39159.58,2,2,3,223,1,6308,2022-11-01,LIQUOR LAND / AMES,A,4518 MORTENSEN ROAD,IA,50014,42.012112,-93.679781,AMES
341,3354,6,2018,1844640.0,3,1,1,311,1,3354,2022-11-01,SAM'S CLUB 8238 / DAVENPORT,A,3845 ELMORE AVE.,IA,52807,41.557357,-90.527117,DAVENPORT
342,4930,17,276,47195.33,4,3,3,433,1,4930,2022-11-01,CASEY'S GENERAL STORE #3251 / BOONE,A,1303 SE MARSHALL ST,IA,50036,42.035107,-93.872188,BOONE
343,6173,6,2230,200644.3,3,1,1,311,1,6173,2022-11-01,MINI-MART / INDEPENDENCE,A,709 1ST STREET WEST,IA,50644,42.468633,-91.901687,INDEPENDENCE
344,6118,3,2132,360983.61,1,1,1,111,1,6118,2022-11-01,CASH SAVER #33 / DES MOINES,A,1320 E EUCLID AVE,IA,50313,41.627778,-93.602842,DES MOINES
345,4633,17,344,48250.69,4,3,3,433,1,4633,2022-11-01,KWIK SHOP #520 / CARTER LAKE,A,1202 EAST LOCUST ST,IA,51510,,,CARTER LAKE
346,5195,10,584,95253.75,3,2,2,322,1,5195,2022-11-01,CASEY'S GENERAL STORE #3203 / COUNCI,A,"1928, SHERWOOD DR",IA,51530,41.278645,-95.811488,COUNCIL BLUFFS
347,4365,41,252,23982.62,4,4,4,444,1,4365,2022-11-01,KUM & GO #222 / WEST ST GRINNELL,A,1002 WEST ST,IA,50112,41.745106,-92.727375,GRINNELL
348,5469,5,261,38835.51,2,4,3,243,1,5469,2022-11-01,CHROME TRUCK STOP,A,211 HIGHWAY 18 E.,IA,50511,43.082792,-94.235284,ALGONA
349,5845,5,677,96097.1,2,2,2,222,1,5845,2022-11-01,CASEY'S GENERAL STORE #3827- ANKENY,A,3605 NW IRVINEDALE DRIVE,IA,50023,41.761438,-93.638998,ANKENY
350,4653,7,716,56368.08,3,2,2,322,1,4653,2022-11-01,CASEY'S GENERAL STORE #1617 / JEFFERSON,A,508 N ELM,IA,50129,42.02014,-94.377422,JEFFERSON
351,4540,7,412,44258.49,3,3,3,333,1,4540,2022-11-01,CASEY'S GENERAL STORE #2915 / BELLEVUE,A,1104 N RIVERVIEW ST,IA,52031,42.268432,-90.427844,BELLEVUE
352,5934,13,409,98699.13,4,3,2,432,1,5934,2022-11-01,CITY LIQUOR / IOWA CITY,A,425 S GILBERT ST,IA,52240,41.656031,-91.530225,IOWA CITY
353,4989,13,227,37571.25,4,4,3,443,1,4989,2022-11-01,CASEY'S GENERAL STORE #3322 / IOWA CITY,A,1904 BROADWAY ST,IA,52240,41.641358,-91.52032,IOWA CITY
354,2642,5,5251,853789.49,2,1,1,211,0,2642,2022-11-01,HY-VEE WINE AND SPIRITS / PELLA,A,512 E OSKALOOSA,IA,50219,41.396961,-92.899279,PELLA
355,5696,10,247,36257.57,3,4,3,343,1,5696,2022-11-01,CASEY'S #1025 /KALONA,A,601 EAST AVENUE,IA,52247,41.48585,-91.704226,KALONA
356,4748,7,280,32096.36,3,3,3,333,1,4748,2022-11-01,WALGREENS #06186 / DAVENPORT,A,4011 E 53RD ST,IA,52807,41.574851,-90.514255,DAVENPORT
357,5831,3,276,24667.78,1,3,4,134,1,5831,2022-11-01,CASEY'S GENERAL STORE #1828 / WEBSTER CITY,A,1300 2ND ST,IA,50595,42.469575,-93.835789,WEBSTER CITY
358,2671,0,1474,300184.87,1,1,1,111,1,2671,2022-11-01,HY-VEE  /  JEFFERSON,A,"106, W WASHINGTON ST",IA,50129,42.017267,-94.375508,JEFFERSON
359,5961,34,131,12731.22,4,4,4,444,1,5961,2022-11-01,CASEY'S GENERAL STORE #63 / ROCK RAPIDS,A,709 1ST AVE,IA,51246,43.431854,-96.175056,ROCK RAPIDS
360,5595,4,39,7087.48,2,4,4,244,1,5595,2022-11-01,GIT-N-GO #47 / ALTOONA,A,101 8TH ST W,IA,50009,41.64404,-93.465043,ALTOONA
361,6251,19,309,33603.63,4,3,3,433,1,6251,2022-11-01,COLFAX-TRAVEL CENTER,I,1405 NORTH WALNUT STREET,IA,50054,41.695341,-93.246766,COLFAX
362,5721,34,117,13867.42,4,4,4,444,1,5721,2022-11-01,WEST MAIN LIQUOR,A,306 W MAIN ST. SUITE C,IA,52132,43.183003,-91.867628,CALMAR
363,5240,0,306,56813.83,1,3,2,132,1,5240,2022-11-01,CASEY'S GENERAL STORE #3463 / WEST B,A,"615, S  DOWNEY ST",IA,52358,41.661231,-91.345441,WEST BRANCH
364,3691,3,1117,262153.77,1,2,1,121,1,3691,2022-11-01,TARGET STORE T-1791 / URBANDALE,A,11148 PLUM DR,IA,50322,41.646827,-93.76978,URBANDALE
365,5600,3,2304,620088.24,1,1,1,111,1,5600,2022-11-01,H & A MINI MART,A,145 UNIVERSITY AVE,IA,50314,41.600419,-93.619469,DES MOINES
366,4418,3,181,14915.99,1,4,4,144,1,4418,2022-11-01,KUM & GO #1046 / WALNUT,A,1709 ANTIQUE CITY DR,IA,51577,41.494299,-95.222089,WALNUT
367,4511,4,926,84652.04,2,2,2,222,1,4511,2022-11-01,SUPER QUICK / SE 30 DM,A,303 SE 30TH ST,IA,50317,41.585298,-93.558326,DES MOINES
368,3666,0,1230,290830.45,1,1,1,111,1,3666,2022-11-01,TARGET STORE T-1771 / CEDAR RAPIDS,A,3400 EDGEWOOD RD SW,IA,52404,41.943871,-91.716096,CEDAR RAPIDS
369,4562,0,291,39708.97,1,3,3,133,1,4562,2022-11-01,CASEY'S GENERAL STORE #2989 / MECHANICSVILLE,A,206 SHORT ST,IA,52306,,,MECHANICSVILLE
370,4852,0,597,33035.39,1,2,3,123,1,4852,2022-11-01,KUM & GO #520 / CEDAR RAPIDS,A,2604 16TH AVE,IA,52404,41.963067,-91.707061,CEDAR RAPIDS
371,2522,5,5906,672050.87,2,1,1,211,0,2522,2022-11-01,HY-VEE WINE AND SPIRITS / SPIRIT LAKE,A,1902 PEORIA AVENUE,IA,51360,43.421714,-95.111858,SPIRIT LAKE
372,5273,5,981,60948.96,2,2,2,222,1,5273,2022-11-01,CASEY'S GENERAL STORE # 2598/ PELLA,A,414 S CLARK STREET,IA,50219,41.392871,-92.912281,PELLA
373,4317,3,1203,121902.39,1,2,2,122,1,4317,2022-11-01,FAREWAY STORES #941 / GREENFIELD,A,212 SW KENT,IA,50849,41.303177,-94.463674,GREENFIELD
374,6309,17,135,12769.13,4,4,4,444,1,6309,2022-11-01,KEYSTONE MINI MART / KEYSTONE,A,407 5TH STREET EAST,IA,52249,42.003522,-92.201107,KEYSTONE
375,5627,20,203,37483.66,4,4,3,443,1,5627,2022-11-01,CASEY'S GENERAL STORE #2275 / SIOUX CITY,A,1000 RIVERSIDE BLVD,IA,51109,42.496756,-96.467468,SIOUX CITY
376,2588,4,8170,843688.4,2,1,1,211,0,2588,2022-11-01,HY-VEE FOOD AND DRUG #6 / CEDAR RAPIDS,A,4035 MT VERNON RD SE,IA,52403,41.976835,-91.60978,CEDAR RAPIDS
377,5359,0,718,182509.77,1,2,1,121,1,5359,2022-11-01,FAREWAY STORES #168/ PEOSTA,A,8400 NICC DRIVE,IA,52068,,,PEOSTA
378,6120,6,303,36026.84,3,3,3,333,1,6120,2022-11-01,CRESCO MART,A,202 2ND AVE SW,IA,52136,43.371153,-92.118817,CRESCO
379,5960,4,830,102723.75,2,2,2,222,1,5960,2022-11-01,CASEY'S GENERAL STORE #1938 / ALTOONA,A,3348 8TH ST SW,IA,50009,41.644021,-93.502758,ALTOONA
380,6037,27,249,30305.34,4,4,4,444,1,6037,2022-11-01,CASEY'S GENERAL STORE #3332 / MURRAY,A,702 1ST ST,IA,50174,41.037886,-93.953315,MURRAY
381,5116,0,1578,209507.65,1,1,1,111,1,5116,2022-11-01,NEW STAR MART  /  NEWTON,A,702 1ST AVE E,IA,50208,41.69943,-93.045515,NEWTON
382,2703,14,173,14728.57,4,4,4,444,1,2703,2022-11-01,HY-VEE FAST AND FRESH / CLIVE,A,11925 UNIVERSITY AVE,IA,50325,41.600514,-93.781976,CLIVE
383,2604,6,3421,553784.08,3,1,1,311,0,2604,2022-11-01,HY-VEE WINE AND SPIRITS / LE MARS,A,1201 12TH AVE SW,IA,51031,42.778257,-96.18335,LE MARS
384,4073,5,1652,264781.64,2,1,1,211,1,4073,2022-11-01,"UPTOWN LIQUOR, LLC",A,306 HWY 69 SOUTH,IA,50436,43.261538,-93.633306,FOREST CITY
385,3773,0,11308,3859208.6,1,1,1,111,0,3773,2022-11-01,BENZ DISTRIBUTING,A,501 7TH AVE SE,IA,52401,41.97574,-91.659875,CEDAR RAPIDS
386,4373,28,1344,59801.18,4,1,2,412,1,4373,2022-11-01,KUM & GO #74 / WEST DES MOINES,I,141 S JORDAN CREEK PKWY,IA,50266,41.567246,-93.809458,WEST DES MOINES
387,6159,3,1230,148371.55,1,1,2,112,1,6159,2022-11-01,CASEY'S GENERAL STORE #6134 / COUNCIL BLUFFS,A,3501 W BROADWAY,IA,51501,41.261918,-95.90257,COUNCIL BLUFFS
388,5135,4,1365,227343.55,2,1,1,211,1,5135,2022-11-01,FAREWAY STORES #155 / HUXLEY,A,911 HWY 69,IA,50124,41.902012,-93.60822,HUXLEY
389,4300,5,1439,262090.55,2,1,1,211,1,4300,2022-11-01,FAREWAY STORES #625 / OSKALOOSA,A,311  3RD AVE W,IA,52577,41.292613,-92.648318,OSKALOOSA
390,2596,5,2255,175289.64,2,1,1,211,1,2596,2022-11-01,HY-VEE OTTUMWA#2,A,2453 NORTH COURT,IA,52501,,,OTTUMWA
391,5513,3,432,49466.02,1,3,3,133,1,5513,2022-11-01,RICHMOND & FERRY BP,A,720 RICHMOND AVE,IA,52501,41.007266,-92.432493,OTTUMWA
392,3054,6,1087,72157.4,3,2,2,322,1,3054,2022-11-01,MCNALLY'S SUPER VALU,A,1026 MAIN,IA,50112,41.745726,-92.725772,GRINNELL
393,5937,5,541,59700.74,2,3,2,232,1,5937,2022-11-01,CARSTENSEN'S MEAT AND GROCERY / LAKE PARK,A,201 MARKET ST N,IA,51347,43.454834,-95.32133,LAKE PARK
394,2840,0,391,47100.53,1,3,3,133,1,2840,2022-11-01,CVS PHARMACY #8633 / BETTENDORF,A,2002 SPRUCE HILLS DRIVE,IA,52722,41.550134,-90.503814,BETTENDORF
395,5190,7,698,45158.67,3,2,3,323,1,5190,2022-11-01,GUPPY'S ON THE GO / WALFORD,A,200 HWY 151 E,IA,52351,41.881821,-91.828571,WALFORD
396,2709,0,646,37437.22,1,2,3,123,1,2709,2022-11-01,HY-VEE FAST AND FRESH - DUBUQUE,A,2435 NW ARTERIAL,IA,52002,42.51752,-90.741051,DUBUQUE
397,5510,20,504,28622.27,4,3,4,434,1,5510,2022-11-01,KUM & GO #1443 / WILLIAMSBURG,A,2177 M AVE,IA,52361,41.690902,-92.066146,WILLIAMSBURG
398,4609,5,600,55900.9,2,2,3,223,1,4609,2022-11-01,KUM & GO #579 / ANKENY,A,165 SW MAGAZINE RD,IA,50023,41.717286,-93.602007,ANKENY
399,4829,0,15562,11130085.1,1,1,1,111,0,4829,2022-11-01,CENTRAL CITY 2,A,1501 MICHIGAN AVE,IA,50314,41.605828,-93.61374,DES MOINES
400,5482,0,1225,206846.49,1,1,1,111,1,5482,2022-11-01,IOWA MINI MART,A,234 W 3RD ST,IA,52801,41.522416,-90.576587,DAVENPORT
401,5665,17,161,17040.61,4,4,4,444,1,5665,2022-11-01,NEW STAR / FORT DODGE,A,704 AVENUE C,IA,50501,42.497609,-94.196625,FORT DODGE
402,4607,10,155,20160.06,3,4,4,344,1,4607,2022-11-01,CASEY'S GENERAL STORE #1024 / GUTTEN,A,"1131, S HWY 52",IA,52052,42.772826,-91.100516,GUTTENBERG
403,4769,6,472,94866.74,3,3,2,332,1,4769,2022-11-01,ELMA LOCKER AND GROCERY,A,100 GRANT ST,IA,50628,43.244311,-92.435443,ELMA
404,5833,12,151,22113.48,4,4,4,444,1,5833,2022-11-01,CASEY'S GENERAL STORE #1546 / FREMONT,A,203 E MAIN ST,IA,52561,41.212607,-92.43529,FREMONT
405,5890,28,267,35191.64,4,3,3,433,1,5890,2022-11-01,WESTSIDE HOUSER MART / MUSCATINE,A,2201 HOUSER ST,IA,52761,41.436621,-91.079296,MUSCATINE
406,5378,27,179,30187.9,4,4,4,444,1,5378,2022-11-01,CASEY'S GENERAL STORE # 2543/ ALBION,A,201 S MAIN ST.,IA,50005,42.110344,-92.990038,ALBION
407,5173,6,1580,105658.37,3,1,2,312,1,5173,2022-11-01,AUDUBON FOOD LAND,A,104 MARKET ST,IA,50025,41.723057,-94.93625,AUDUBON
408,5870,6,1818,278864.87,3,1,1,311,1,5870,2022-11-01,KEYSTONE LIQUOR,A,517 2ND ST,IA,52241,41.671543,-91.574095,CORALVILLE
409,4642,4,811,90333.0,2,2,2,222,1,4642,2022-11-01,LIQUOR AND TOBACCO OUTLET / UNIV AVE WATERLOO,A,2844 UNIVERSITY AVE,IA,50701,42.498354,-92.382972,WATERLOO
410,6067,0,858,125054.85,1,2,2,122,1,6067,2022-11-01,FAST AVE ONE STOP / MUSCATINE,A,2111 PARK AVE,IA,52761,41.447149,-91.030306,MUSCATINE
411,4414,10,467,42649.63,3,3,3,333,1,4414,2022-11-01,KUM & GO #23 / NEOLA,A,29356 298TH ST,IA,51559,41.438849,-95.612046,NEOLA
412,6057,4,1069,125940.04,2,2,2,222,1,6057,2022-11-01,KUM & GO #0731 / DES MOINES,A,3104 UNIVERSITY AVE,IA,50311,41.600363,-93.65986,DES MOINES
413,6203,3,1614,173643.79,1,1,1,111,1,6203,2022-11-01,WORLD LIQUOR & TOBACCO + VAPORS / WAUKEE,A,23 NE CAREFREE LANE,IA,50263,41.61537,-93.86911,WAUKEE
414,4267,3,716,29803.1,1,2,4,124,1,4267,2022-11-01,MAIN STREET MARKET OF ANITA,A,735 MAIN ST,IA,50020,41.444849,-94.765439,ANITA
415,5662,5,1927,280092.05,2,1,1,211,1,5662,2022-11-01,RIVERSIDE LIQUOR 2 / DAVENPORT,A,1528 W LOCUST,IA,52804,41.53826,-90.597394,DAVENPORT
416,4608,11,533,108456.53,3,3,2,332,1,4608,2022-11-01,CASEY'S GENERAL STORE #3050 / COUNCIL BLUFFS,A,"510, 23RD AVE",IA,51503,41.23931,-95.852481,COUNCIL BLUFFS
417,5443,3,2786,530705.16,1,1,1,111,1,5443,2022-11-01,1ST STOP BEVERAGE SHOP,A,2839 EAST UNIVERSITY AVE.,IA,50317,41.600476,-93.561507,DES MOINES
418,4929,3,466,52682.58,1,3,3,133,1,4929,2022-11-01,CASEY'S GENERAL STORE #1680 / ADEL,A,816 GREENE ST,IA,50003,41.614408,-94.018348,ADEL
419,3670,5,2022,337128.41,2,1,1,211,1,3670,2022-11-01,WAL-MART 2827 / CORALVILLE,A,2801 COMMERCE DR,IA,52241,41.695651,-91.612116,CORALVILLE
420,4539,0,367,32058.79,1,3,3,133,1,4539,2022-11-01,CASEY'S GENERAL STORE #40 / SCRANTON,A,900 LOCUST ST,IA,51462,42.02248,-94.551577,SCRANTON
421,4825,62,240,37009.65,4,4,3,443,1,4825,2022-11-01,CASEY'S GENERAL STORE #3212 / OSCEOLA,A,100 W MCLANE ST,IA,50213,41.030598,-93.76612,OSCEOLA
422,2676,13,45,6516.1,4,4,4,444,1,2676,2022-11-01,HY-VEE GAS / INDIANOLA,A,912 N JEFFERSON WAY,IA,50125,41.36897,-93.558417,INDIANOLA
423,5712,6,413,34980.69,3,3,3,333,1,5712,2022-11-01,CASEY'S #2866-WATERLOO,A,51 E TOWER PARK DRIVE,IA,50701,42.456414,-92.355948,WATERLOO
424,4702,129,88,17850.42,4,4,4,444,1,4702,2022-11-01,WALGREENS #05361 / FORT DODGE,A,2503 5TH AVE S,IA,50501,42.501197,-94.162484,FORT DODGE
425,4466,6,468,68219.36,3,3,2,332,1,4466,2022-11-01,THE PUMPER,A,515 W WATER STREET,IA,52142,42.844438,-91.80894,FAYETTE
426,9001,5,187,197060.1,2,4,1,241,1,9001,2022-11-01,CEDAR RIDGE VINEYARDS,I,1441 MARAK RD NW,IA,52338,41.832151,-91.677809,SWISHER
427,5282,18,62,11278.8,4,4,4,444,1,5282,2022-11-01,YESWAY STORE # 10019/ MASON CITY,A,1224 FEDERAL AVE N,IA,50401,43.163367,-93.201061,MASON CITY
428,5701,6,1348,85611.75,3,1,2,312,1,5701,2022-11-01,THE HUT 23,A,603 10TH STREET,IA,51040,42.03192,-96.097184,ONAWA
429,6315,6,71,2620.15,3,4,4,344,1,6315,2022-11-01,CORNERSTONE APOTHECARY,A,1035 COURT AVENUE,IA,52301,41.79904,-92.070066,MARENGO
430,3524,5,1681,1640806.93,2,1,1,211,1,3524,2022-11-01,SAM'S CLUB 6568 / AMES,A,305 AIRPORT RD,IA,50010,42.001124,-93.614375,AMES
431,3622,5,2385,484141.47,2,1,1,211,1,3622,2022-11-01,WAL-MART 1415 / SPIRIT LAKE,A,2600 HWY 71,IA,51360,43.416452,-95.126535,SPIRIT LAKE
432,6161,5,1304,119906.21,2,1,2,212,1,6161,2022-11-01,CASEY'S #6122 / COUNCIL BLUFFS,A,3434 NEBRASKA AVE,IA,51501,41.244524,-95.900631,COUNCIL BLUFFS
433,5607,10,315,40501.09,3,3,3,333,1,5607,2022-11-01,CASEY'S GENERAL STORE #3294 / URBANA,A,5350 31ST AVE,IA,52345,42.246496,-91.890859,URBANA
434,4549,7,342,41540.22,3,3,3,333,1,4549,2022-11-01,CASEY'S GENERAL STORE #2913 / COLO,A,702 US HWY 65,IA,50056,42.014877,-93.309394,COLO
435,6024,0,318,17953.02,1,3,4,134,1,6024,2022-11-01,CASEY'S GENERAL STORE #1589 / GRUNDY CENTER,A,1708 G AVE,IA,50638,42.361601,-92.787334,GRUNDY CENTER
436,4652,0,2357,344107.55,1,1,1,111,1,4652,2022-11-01,BRADY MART FOOD & LIQUOR,A,"3107, BRADY ST",IA,52803,41.55216,-90.569719,DAVENPORT
437,4699,0,242,37183.93,1,4,3,143,1,4699,2022-11-01,WALGREENS #06553 / BETTENDORF,A,830 MIDDLE RD,IA,52722,41.538452,-90.521768,BETTENDORF
438,5571,5,305,34979.79,2,3,3,233,1,5571,2022-11-01,CASEY'S GENERAL STORE #2782 / CEDAR RAPIDS,A,1495 BLAIRS FERRY RD NE,IA,52402,42.035276,-91.657883,CEDAR RAPIDS
439,6002,6,352,42517.4,3,3,3,333,1,6002,2022-11-01,CASEY'S GENERAL STORE #2597 / SLOAN,A,104 BUCKLEY ST,IA,51055,42.229186,-96.222381,SLOAN
440,5619,6,285,42957.08,3,3,3,333,1,5619,2022-11-01,CASEY'S GENERAL STORE #3041 / ELK RUN HEIGHTS,A,5202 LAFAYETTE RD,IA,50707,42.469069,-92.257902,ELK RUN HEIGHTS
441,4258,3,988,221400.24,1,2,1,121,1,4258,2022-11-01,FAREWAY STORES #009 / BURLINGTON,A,920 LAWRENCE DRIVE,IA,52601,40.799097,-91.140051,BURLINGTON
442,3849,3,839,109544.73,1,2,2,122,1,3849,2022-11-01,HARTIG DRUG CO #6 / DYERSVILLE,A,711  16TH AVE SE,IA,52040,42.470285,-91.116087,DYERSVILLE
443,5355,31,141,16267.86,4,4,4,444,1,5355,2022-11-01,CASEY'S GENERAL STORE # 3523/ ELDRIDGE,A,26701 SCOTT PARK RD.,IA,52748,41.695339,-90.549067,ELDRIDGE
444,6204,3,1836,236422.89,1,1,1,111,1,6204,2022-11-01,DEPOT LIQUOR & GROCERY / MARSHALLTOWN,A,114 CENTER ST.,IA,50158,42.051665,-92.912975,MARSHALLTOWN
445,4723,18,203,38513.5,4,4,3,443,1,4723,2022-11-01,WALGREENS #10557 / CEDAR FALLS,A,2509 WHITETAIL DR,IA,50613,42.540414,-92.476211,CEDAR FALLS
446,4204,0,1085,203405.19,1,2,1,121,1,4204,2022-11-01,FAREWAY STORES #025 / CLINTON,A,1350 11TH ST NW,IA,52733,41.860995,-90.211315,CLINTON
447,2693,31,83,4668.72,4,4,4,444,1,2693,2022-11-01,HY-VEE FAST & FRESH EXPRESS / CRESTON,A,600 SHELDON STREET STE A,IA,50801,41.051401,-94.37264,CRESTON
448,4548,10,243,30957.38,3,4,4,344,1,4548,2022-11-01,CASEY'S GENERAL STORE #2594 / WALKER,A,401 GRANT ST,IA,52352,42.283922,-91.781944,WALKER
449,4508,19,245,36333.43,4,4,3,443,1,4508,2022-11-01,CASEY'S GENERAL STORE #2877 / SPENCER,A,805 GRAND AVE S,IA,51301,43.12977,-95.143866,SPENCER
450,4806,0,716,134432.25,1,2,2,122,1,4806,2022-11-01,GIRI'S LIQUOR STORE / WEST LIBERTY,A,1006 N. COLUMBUS STREET SUITE A,IA,52776,41.578584,-91.260581,WEST LIBERTY
451,5256,21,257,25837.26,4,4,4,444,1,5256,2022-11-01,CASEY'S GENERAL STORE # 1331/ SAC CITY,A,1304 MAIN ST W,IA,50583,42.422724,-94.999958,SAC CITY
452,4506,6,364,50597.89,3,3,3,333,1,4506,2022-11-01,CASEY'S GENERAL STORE #2667 / TIFFIN,A,403 STEPHENS ST,IA,52340,41.707283,-91.660201,TIFFIN
453,5027,6,489,150606.19,3,3,2,332,1,5027,2022-11-01,HARD ROCK HOTEL & CASINO SIOUX CITY,A,111 3RD ST,IA,51101,42.493049,-96.409419,SIOUX CITY
454,5647,14,100,13558.72,4,4,4,444,1,5647,2022-11-01,YESWAY #1169 / STORM LAKE,A,1101 LAKE AVE,IA,50588,42.651369,-95.200761,STORM LAKE
455,4444,6,603,47070.73,3,2,3,323,1,4444,2022-11-01,KUM & GO #4127 / SLOAN,A,1864 HWY 141,IA,51055,42.228581,-96.236082,SLOAN
456,3909,3,736,112022.4,1,2,2,122,1,3909,2022-11-01,D AND S GROCERY,A,104 SE  A ST,IA,50163,41.222471,-93.241634,MELCHER-DALLAS
457,5156,0,220,19922.23,1,4,4,144,1,5156,2022-11-01,CASEY'S GENERAL STORE #1020  / LE CL,A,210 JONES ST,IA,52753,41.598593,-90.345923,LE CLAIRE
458,2521,3,5635,912391.69,1,1,1,111,0,2521,2022-11-01,HY-VEE FOOD AND DRUG / GRAND / WDM,A,1990 GRAND AVENUE,IA,50265,41.571527,-93.731396,WEST DES MOINES
459,4560,6,501,48760.14,3,3,3,333,1,4560,2022-11-01,CASEY'S GENERAL STORE #2914 / HARLAN,A,"1006, CHATBURN AVE",IA,51537,41.645404,-95.322969,HARLAN
460,4256,6,933,201739.3,3,2,1,321,1,4256,2022-11-01,FAREWAY STORES #912 / SIOUX CENTER,A,115  1ST AVE NW,IA,51250,43.078003,-96.176959,SIOUX CENTER
461,4150,4,992,147212.68,2,2,2,222,1,4150,2022-11-01,FAREWAY STORES #951 / WATERLOO,A,40  W SAN MARNAN,IA,50701,,,WATERLOO
462,4714,41,163,16519.58,4,4,4,444,1,4714,2022-11-01,WALGREENS #05943 / INDIANOLA,A,1000 N JEFFERSON ST,IA,50125,,,INDIANOLA
463,4371,0,1037,64812.06,1,2,2,122,1,4371,2022-11-01,KUM & GO #50 / WEST DES MOINES,A,745 S 51ST ST,IA,50265,41.558711,-93.772795,WEST DES MOINES
464,2573,0,8208,1100745.8,1,1,1,111,0,2573,2022-11-01,HY-VEE FOOD STORE / MUSCATINE,A,2400 2ND AVE,IA,52761,41.450849,-91.035301,MUSCATINE
465,4197,4,1145,166573.01,2,2,1,221,1,4197,2022-11-01,FAREWAY STORES #014 / SERGEANT BLUFF,A,700  1ST ST,IA,51054,42.400504,-96.353077,SERGEANT BLUFF
466,6139,0,1071,162917.7,1,2,1,121,1,6139,2022-11-01,SUPER SAVER TOBACCO & LIQUOR / DAVENPORT,A,1610 ROCKINGHAM RD,IA,52802,41.520231,-90.599326,DAVENPORT
467,5350,10,296,41345.04,3,3,3,333,1,5350,2022-11-01,CASEY'S GENERAL STORE # 3562/ MARION,A,680 LINDALE DR.,IA,52302,42.033645,-91.621476,MARION
468,3744,3,913,157686.49,1,2,1,121,1,3744,2022-11-01,RANDY'S NEIGHBORHOOD MARKET / DYERSVILLE,A,733 16TH AVE SE,IA,52040,42.470196,-91.11574,DYERSVILLE
469,2691,4,1954,137574.18,2,1,2,212,1,2691,2022-11-01,HY-VEE FAST & FRESH - DES MOINES,A,5801 HICKMAN ROAD,IA,50322,41.614888,-93.698172,URBANDALE
470,5142,4,1539,95832.35,2,1,2,212,1,5142,2022-11-01,SMOKIN' JOE'S #13 TOBACCO AND LIQUOR OUTLET,A,2315 MT VERNON RD SE,IA,52303,,,CEDAR RAPIDS
471,5894,3,223,47680.02,1,4,3,143,1,5894,2022-11-01,WHISKEY BUSINESS / ALLERTON,A,104 N PRAIRIE ST,IA,50008,40.707034,-93.36933,ALLERTON
472,4517,11,285,53314.3,3,3,3,333,1,4517,2022-11-01,CASEY'S GENERAL STORE #2767 / CEDAR RAPIDS,A,3434 1ST AVE NE,IA,52402,42.013063,-91.635028,CEDAR RAPIDS
473,4397,5,1063,29679.35,2,2,4,224,1,4397,2022-11-01,QUIK TRIP #514 / ANKENY,A,802 E 1ST ST,IA,50021,41.731862,-93.586342,ANKENY
474,4843,21,628,17571.85,4,2,4,424,1,4843,2022-11-01,STEWART ROAD FAST BREAK,A,2418 STEWART RD,IA,52761,41.390826,-91.072733,MUSCATINE
475,5499,4,701,76888.43,2,2,2,222,1,5499,2022-11-01,KUM & GO #184 / ALTOONA,A,1430 1ST AVE NORTH,IA,50009,41.663525,-93.464656,ALTOONA
476,5883,10,172,21694.85,3,4,4,344,1,5883,2022-11-01,KIMMES HUMBOLDT COUNTRY STORE #14,A,411 13TH ST,IA,50548,42.726183,-94.226844,HUMBOLDT
477,5432,4,796,109595.89,2,2,2,222,1,5432,2022-11-01,"BRICK STREET MARKET, LLC",A,114 BRICK STREET,IA,50035,41.689492,-93.461564,BONDURANT
478,6150,6,331,26455.0,3,3,4,334,1,6150,2022-11-01,THE DEPOT GILMAN,A,102 S. ELM ST.,IA,50106,41.879756,-92.785861,GILMAN
479,4879,152,808,155414.62,4,2,1,421,1,4879,2022-11-01,SAM'S MINI MART / MORNINGSIDE AVE SIOUX CITY,I,4218 MORNINGSIDE AVE,IA,51106,42.47063,-96.352851,SIOUX CITY
480,5275,0,588,61455.56,1,2,2,122,1,5275,2022-11-01,CASEY'S GENERAL STORE # 2417/ NEWTON,A,1200 W 18TH ST S,IA,50208,41.688376,-93.076066,NEWTON
481,4438,228,156,7788.52,4,4,4,444,1,4438,2022-11-01,KUM & GO #214  AMES,I,111 DUFF AVE,IA,50010,42.023592,-93.610396,AMES
482,6041,6,1189,297963.6,3,2,1,321,1,6041,2022-11-01,LIQUOR DOWNTOWN / IOWA CITY,A,315 S GILBERT ST,IA,52240,41.657647,-91.530181,IOWA CITY
483,5866,13,489,28136.9,4,3,4,434,1,5866,2022-11-01,HOMETOWN FAMILY MARKET,A,310 2ND ST,IA,50635,42.187653,-92.716422,GLADBROOK
484,4291,3,3393,417920.8,1,1,1,111,0,4291,2022-11-01,FAREWAY STORES #597 / CRESTON,A,105 E ADAMS ST,IA,50801,,,CRESTON
485,4661,3,1104,29536.14,1,2,4,124,1,4661,2022-11-01,QUIK TRIP #531 / GRIMES,A,"1900, SE 37TH ST",IA,50111,41.658525,-93.773467,GRIMES
486,5660,0,1649,312483.74,1,1,1,111,1,5660,2022-11-01,NORTH SIDE LIQUOR & TOBACCO / DUBUQUE,A,2013 CENTRAL AVE,IA,52001,42.511716,-90.670219,DUBUQUE
487,6238,5,604,96796.05,2,2,2,222,1,6238,2022-11-01,WASHINGTON LIQUOR AND TOBACCO OUTLET / WASHINGTON,A,304 WEST MADISON STREET,IA,52353,41.296493,-91.694639,WASHINGTON
488,5517,3,1451,82970.66,1,1,2,112,1,5517,2022-11-01,MEPO FOODS / MEDIAPOLIS,A,111 WAPELLO ST N,IA,52637,41.008539,-91.170033,MEDIAPOLIS
489,6288,4,588,85692.42,2,2,2,222,1,6288,2022-11-01,MIDWEST FOOD & LIQUOR / PLEASANT HILL,A,1250 COPPER CREEK DRIVE,IA,50327,41.601589,-93.524341,PLEASANT HILL
490,3707,5,1283,297840.81,2,1,1,211,1,3707,2022-11-01,TARGET STORE T-1768 / CEDAR RAPIDS,A,1030 BLAIRS FERRY RD,IA,52402,42.035203,-91.651107,CEDAR RAPIDS
491,5398,5,235,25452.18,2,4,4,244,1,5398,2022-11-01,CASEY'S GENERAL STORE # 2272/COLFAX,A,1203 N WALNUT,IA,50054,41.686707,-93.247274,COLFAX
492,6304,4,1720,118059.06,2,1,2,212,1,6304,2022-11-01,WORLD LIQUOR & TOBACCO + VAPORS / AMES,A,111 DUFF AVENUE,IA,50010,42.023592,-93.610396,AMES
493,4731,14,288,39954.45,4,3,3,433,1,4731,2022-11-01,WALGREENS #05060 / CLIVE,A,12753 UNIVERSITY AVE,IA,50325,41.600486,-93.793575,CLIVE
494,3618,0,1080,177384.24,1,2,1,121,1,3618,2022-11-01,WAL-MART 2716 / CEDAR RAPIDS,A,3601 29TH AVE SW,IA,52404,41.949218,-91.718288,CEDAR RAPIDS
495,2601,0,2218,533204.05,1,1,1,111,1,2601,2022-11-01,HY-VEE FOOD STORE / FAIRFIELD,A,1300 WEST BURLINGTON AVE,IA,52556,41.00645,-91.9794,FAIRFIELD
496,4138,6,990,139151.23,3,2,2,322,1,4138,2022-11-01,FAREWAY STORES #657 / INDIANOLA,A,1309 W 2ND,IA,50125,41.356616,-93.579252,INDIANOLA
497,5669,6,1430,143255.61,3,1,2,312,1,5669,2022-11-01,GUDDI MART / WATERLOO,A,306 BYRON AVE,IA,50702,42.480288,-92.353141,WATERLOO
498,5580,31,246,29109.02,4,4,4,444,1,5580,2022-11-01,CASEY'S GENERAL STORE #2 / BOONE,A,114 MAMIE EISENHOWER,IA,50036,42.059601,-93.891545,BOONE
499,5769,12,244,30226.09,4,4,4,444,1,5769,2022-11-01,CASEY'S GENERAL STORE #2208 / OTTUMWA,A,1603 W 2ND ST,IA,52501,41.034863,-92.433272,OTTUMWA
500,5349,5,332,48130.01,2,3,3,233,1,5349,2022-11-01,CASEY'S GENERAL STORE # 3564/ ROBINS,A,990 ROBINS SQUARE DR.,IA,52328,42.068205,-91.65404,ROBINS
501,6048,19,163,20350.24,4,4,4,444,1,6048,2022-11-01,MOD / FORT MADISON,A,1531 AVE H,IA,52627,40.630165,-91.326025,FORT MADISON
502,4255,6,943,242524.55,3,2,1,321,1,4255,2022-11-01,FAREWAY STORES #058 / ORANGE CITY,A,512  8TH SE,IA,51041,,,ORANGE CITY
503,5734,0,1045,154285.62,1,2,1,121,1,5734,2022-11-01,FAREWAY STORES #193 / TIFFIN,A,500 CROELL AVENUE,IA,52340,,,TIFFIN
504,4013,0,698,106377.02,1,2,2,122,1,4013,2022-11-01,WAL-MART 0841 / TIPTON,A,1126 HIGHWAY 38 NORTH,IA,52772,41.783588,-91.127508,TIPTON
505,5818,6,276,31778.85,3,3,3,333,1,5818,2022-11-01,CASEY'S GENERAL STORE #2894 / INDIANOLA,A,1101 E 2ND AVE,IA,50125,41.358073,-93.548319,INDIANOLA
506,5723,10,372,42959.49,3,3,3,333,1,5723,2022-11-01,CASEY'S GENERAL STORE #2538-WAUKEE,A,20 W. HICKMAN RD,IA,50263,41.614862,-93.872778,WAUKEE
507,4721,31,162,16024.33,4,4,4,444,1,4721,2022-11-01,WALGREENS #05044 / BURLINGTON,A,3245 AGENCY ST,IA,52601,40.814794,-91.140542,BURLINGTON
508,4575,3,510,57455.24,1,3,2,132,1,4575,2022-11-01,CASEY'S GENERAL STORE #2304 / SLATER,A,200 6TH AVE,IA,50244,41.877859,-93.679675,SLATER
509,6210,6,772,83055.84,3,2,2,322,1,6210,2022-11-01,BAILEY'S CONVENIENCE / SIOUX CITY,A,1203 TRI VIEW AVENUE,IA,51104,42.494265,-96.422992,SIOUX CITY
510,5816,11,258,36030.44,3,4,3,343,1,5816,2022-11-01,CASEY'S GENERAL STORE #2916 / ALTOONA,A,170 36TH AVE SW,IA,50009,41.649992,-93.508767,ALTOONA
511,4279,12,365,27347.04,4,3,4,434,1,4279,2022-11-01,KEOTA EAGLE FOODS,A,217 E BROADWAY,IA,52248,41.363958,-91.952725,KEOTA
512,3738,0,429,49016.09,1,3,3,133,1,3738,2022-11-01,HARTIG DRUG COMPANY #4 / DUBUQUE,A,2225 CENTRAL AVE,IA,52001,42.513944,-90.671595,DUBUQUE
513,5376,54,116,16538.22,4,4,4,444,1,5376,2022-11-01,CASEY'S GENERAL STORE # 2687/ HAWARDEN,A,1001 AVE E,IA,51023,42.997038,-96.488094,HAWARDEN
514,3811,5,1105,160732.01,2,2,1,221,1,3811,2022-11-01,WAL-MART 1431 / KEOKUK,A,300 NORTH PARK DR,IA,52632,40.417886,-91.408404,KEOKUK
515,4877,4,3135,442613.8,2,1,1,211,1,4877,2022-11-01,WORLD LIQUOR & TOBACCO,A,1775 NW 86TH ST,IA,50325,41.607907,-93.736233,CLIVE
516,4901,3,1410,317281.11,1,1,1,111,1,4901,2022-11-01,FAREWAY STORES #137 / POLK CITY,A,1101 SOUTH 5TH STREET,IA,50226,41.763823,-93.719324,POLK CITY
517,4547,0,679,97810.9,1,2,2,122,1,4547,2022-11-01,FAREWAY STORES #902 / HAMPTON,A,309 CENTRAL AVE WEST,IA,50441,42.741752,-93.211882,HAMPTON
518,4148,0,1432,154667.08,1,1,1,111,1,4148,2022-11-01,FAREWAY STORES #479 / INDEPENDENCE,A,1400 3RD AVE SE,IA,50644,42.455804,-91.890284,INDEPENDENCE
519,2847,101,107,13481.88,4,4,4,444,1,2847,2022-11-01,CVS PHARMACY #10032 / MARION,A,"3499, 7TH AVE",IA,52302,42.035908,-91.574654,MARION
520,6188,7,105,16911.84,3,4,4,344,1,6188,2022-11-01,SPARKY'S ONE STOP / LAKE VIEW,A,HWY 71 & HWY 175,IA,51450,42.311746,-95.148559,LAKE VIEW
521,3624,5,894,146776.23,2,2,2,222,1,3624,2022-11-01,WAL-MART 0748 / NEWTON,A,300 IOWA SPEEDWAY DR,IA,50208,41.697079,-93.014457,NEWTON
522,4160,5,735,117816.45,2,2,2,222,1,4160,2022-11-01,FAREWAY STORES #034 / IOWA CITY,A,2765 COMMERCE DR,IA,52240,41.629617,-91.48043,IOWA CITY
523,4792,17,544,59320.82,4,3,2,432,1,4792,2022-11-01,CASEY'S GENERAL STORE #2899 / DE SOTO,A,1100 GREENE ST,IA,50069,42.066915,-93.8834,DE SOTO
524,5029,5,1653,294321.58,2,1,1,211,1,5029,2022-11-01,THE LIQUOR STOP LLC,A,"211, W 53RD ST",IA,52806,41.574535,-90.575945,DAVENPORT
525,5755,12,266,41062.35,4,3,3,433,1,5755,2022-11-01,CASEY'S GENERAL STORE #0007 / OTTUMWA,A,1001 E MAIN ST,IA,52501,41.010627,-92.401498,OTTUMWA
526,6151,0,3002,699563.24,1,1,1,111,1,6151,2022-11-01,UNIVERSITY LIQUORS / WDM,A,9250 UNIVERSITY AVE UNIT 115,IA,50266,41.600409,-93.832897,WEST DES MOINES
527,2626,4,3523,817224.88,2,1,1,211,0,2626,2022-11-01,HY-VEE DRUGSTORE / UNIVERSITY / DSM,A,4100 UNIVERSITY AVE,IA,50311,41.600361,-93.673312,DES MOINES
528,6093,3,397,30285.39,1,3,4,134,1,6093,2022-11-01,CASEY'S #2741 / SIDNEY,A,901 INDIANA ST,IA,51652,40.748508,-95.646481,SIDNEY
529,5183,3,391,35138.17,1,3,3,133,1,5183,2022-11-01,CASEY'S GENERAL STORE #77 / CASCADE,A,717 1ST  AVE,IA,52033,,,CASCADE
530,2660,6,2903,241780.91,3,1,1,311,1,2660,2022-11-01,HY-VEE FOOD STORE / SIOUX CENTER,A,1951 S MAIN AVE,IA,51250,43.056471,-96.175695,SIOUX CENTER
531,5069,5,981,69770.62,2,2,2,222,1,5069,2022-11-01,CASEY'S GENERAL STORE #1705 / LAKE M,A,101 N LAKE ST,IA,50450,43.419608,-93.532484,LAKE MILLS
532,5692,0,515,72393.43,1,3,2,132,1,5692,2022-11-01,LOCUST MART / DAVENPORT,A,11423 160TH ST,IA,52804,41.538169,-90.680408,DAVENPORT
533,2845,149,101,16473.83,4,4,4,444,1,2845,2022-11-01,CVS PHARMACY #4816 / COUNCIL BLUFFS,A,545 W WASHINGTON ST,IA,51503,41.263132,-95.850866,COUNCIL BLUFFS
534,4941,4,1069,78881.07,2,2,2,222,1,4941,2022-11-01,KUM & GO #170 / URBANDALE,A,6990 DOUGLAS AVE,IA,50322,41.629415,-93.711903,URBANDALE
535,5556,10,509,76523.69,3,3,2,332,1,5556,2022-11-01,CASEY'S GENERAL STORE #2891 / FORT DODGE,A,235 AVE O,IA,50501,42.48687,-94.20311,FORT DODGE
536,5967,31,341,27631.23,4,3,4,434,1,5967,2022-11-01,CASEY'S GENERAL STORE #1728 / RED OAK,A,1310 N BROADWAY ST,IA,51566,41.016443,-95.23272,RED OAK
537,5922,3,380,50977.24,1,3,3,133,1,5922,2022-11-01,CASEY'S GENERAL STORE #3896 / CENTER POINT,A,696 GRAIN LN,IA,52213,42.173697,-91.777548,CENTER POINT
538,4247,5,870,118480.2,2,2,2,222,1,4247,2022-11-01,FAREWAY STORES #879 / BELMOND,A,512 RIVER AVE N,IA,50421,42.850357,-93.616788,BELMOND
539,2705,6,1040,164870.55,3,2,1,321,1,2705,2022-11-01,HY-VEE CRESCO DOLLAR FRESH,A,22422 HWY 9,IA,52349,43.371127,-92.131655,CRESCO
540,4741,3,485,59663.0,1,3,2,132,1,4741,2022-11-01,WALGREENS #03700 / COUNCIL BLUFFS,A,535 E BROADWAY,IA,51503,41.266066,-95.839697,COUNCIL BLUFFS
541,2841,4,252,35562.45,2,4,3,243,1,2841,2022-11-01,CVS PHARMACY #8532 / CEDAR RAPIDS,A,2711 MOUNT VERNON RD,IA,52403,41.976883,-91.627468,CEDAR RAPIDS
542,5677,5,179,28750.6,2,4,4,244,1,5677,2022-11-01,YESWAY STORE #1198 / SWEA CITY,A,101 4TH AVE W,IA,50590,43.384945,-94.307881,SWEA CITY
543,5283,11,97,19725.5,3,4,4,344,1,5283,2022-11-01,YESWAY STORE # 10026/ MASON CITY,A,1303 4TH ST SW,IA,50401,43.148339,-93.221539,MASON CITY
544,2603,6,10781,1661461.46,3,1,1,311,0,2603,2022-11-01,HY-VEE WINE AND SPIRITS / BETTENDORF,A,2890 DEVILS GLEN ROAD,IA,52722,41.552389,-90.483753,BETTENDORF
545,2571,4,4496,707435.58,2,1,1,211,0,2571,2022-11-01,HY-VEE FOOD STORE #2 / WATERLOO,A,2181 LOGAN AVE,IA,50703,42.530476,-92.337583,WATERLOO
546,4752,3,912,153711.91,1,2,1,121,1,4752,2022-11-01,GASLAND / BURLINGTON,A,1003 SUMMER STREET,IA,52655,40.797114,-91.11479,BURLINGTON
547,2554,0,1384,140085.4,1,1,2,112,1,2554,2022-11-01,HY-VEE FOOD STORE / DAVENPORT,A,3019 ROCKINGHAM ROAD,IA,52802,41.510523,-90.620724,DAVENPORT
548,5536,4,691,65184.53,2,2,2,222,1,5536,2022-11-01,THE FILLING STATION / AMES,A,2400 UNIVERSITY BLVD,IA,50010,42.000804,-93.639359,AMES
549,6025,55,125,14213.25,4,4,4,444,1,6025,2022-11-01,CASEY'S GENERAL STORE #3030 / STORM LAKE,A,825 FLINDT DR,IA,50588,42.646522,-95.190566,STORM LAKE
550,6180,20,191,19873.39,4,4,4,444,1,6180,2022-11-01,BREW OIL #11 / BOYDEN,A,1010 SOUTHERN ST.,IA,51234,43.186249,-96.000331,BOYDEN
551,6200,26,28,4085.96,4,4,4,444,1,6200,2022-11-01,HY-VEE C STORE / MT. PLEASANT,A,1702 EAST WASHINGTON STREET,IA,52641,40.962331,-91.52888,MOUNT PLEASANT
552,5384,24,560,39889.56,4,3,3,433,1,5384,2022-11-01,CASEY'S GENERAL STORE # 2698/ PERRY,A,1308 1ST STREET,IA,50220,41.840935,-94.106584,PERRY
553,4296,5,1361,83375.79,2,1,2,212,1,4296,2022-11-01,CIRCLE B MARKET,A,111 MAIN ST,IA,52565,40.7294,-91.962466,KEOSAUQUA
554,4617,0,4625,333441.96,1,1,1,111,0,4617,2022-11-01,LICKETY LIQUOR,A,2501 HUBBELL AVE,IA,50317,41.607818,-93.570488,DES MOINES
555,2552,0,5517,860369.61,1,1,1,111,0,2552,2022-11-01,HY-VEE FOOD STORE #3 / CEDAR RAPIDS,A,20 WILSON AVENUE WEST,IA,52404,41.955859,-91.658576,CEDAR RAPIDS
556,5811,10,234,27586.9,3,4,4,344,1,5811,2022-11-01,CASEY'S GENERAL STORE #2629 / RIVERSIDE,A,200 E 1ST ST,IA,52327,41.480006,-91.578314,RIVERSIDE
557,5624,0,184,32332.41,1,4,3,143,1,5624,2022-11-01,CASEY'S GENERAL STORE #1065 / ASBURY,A,5505 ASBURY RD,IA,52002,42.510502,-90.758535,DUBUQUE
558,5267,52,77,13211.27,4,4,4,444,1,5267,2022-11-01,THE STATION,A,2320 N 15TH STREET,IA,50501,42.52931,-94.177989,FORT DODGE
559,6234,5,261,38743.62,2,4,3,243,1,6234,2022-11-01,EL VALLE TIENDA Y CARNICERIA / EAGLE GROVE,A,101 W BROADWAY ST.,IA,50533,42.664105,-93.901439,EAGLE GROVE
560,5196,6,539,37247.09,3,3,3,333,1,5196,2022-11-01,THE DEPOT CORALVILLE,A,100 E  OAKDALE BLVD,IA,52241,41.701487,-91.562211,CORALVILLE
561,4759,159,94,6507.61,4,4,4,444,1,4759,2022-11-01,WALGREENS #10855 / WATERLOO,A,1850 LOGAN AVE,IA,50703,42.527121,-92.337563,WATERLOO
562,5120,20,392,41871.03,4,3,3,433,1,5120,2022-11-01,CASEY'S GENERAL STORE #3442 / MAPLET,A,"401, S  4TH  ST",IA,51034,42.161847,-95.793241,MAPLETON
563,6237,0,643,21578.18,1,2,4,124,1,6237,2022-11-01,SMOKIN' JOE'S TOBACCO & LIQUOR OUTLET #03 / CLINTON,A,902 NORTH 2ND STREET,IA,52732,41.85384,-90.186408,CLINTON
564,6004,3,421,67132.96,1,3,2,132,1,6004,2022-11-01,CASEY'S GENERAL STORE #2659 / COLUMBUS JUNCTION,A,201 E ACCESS RD,IA,52738,41.279415,-91.356674,COLUMBUS JUNCTION
565,5929,63,292,41284.5,4,3,3,433,1,5929,2022-11-01,D&T'S / ODEBOLT,A,417 1ST ST,IA,51458,42.313396,-95.255961,ODEBOLT
566,4767,5,1061,66251.07,2,2,2,222,1,4767,2022-11-01,CASEY'S GENERAL STORE #3075 / ANKENY,A,6981 NE 14TH ST,IA,50023,41.687793,-93.600659,ANKENY
567,5392,11,267,38904.84,3,3,3,333,1,5392,2022-11-01,CASEY'S GENERAL STORE # 1861/ BONDURANT,A,1455 GRANT STREET SOUTH,IA,50035,41.688665,-93.46336,BONDURANT
568,4512,4,289,35126.87,2,3,3,233,1,4512,2022-11-01,METRO MART #4 / WATERLOO,A,2332 FALLS AVE.,IA,50701,42.500152,-92.376365,WATERLOO
569,4796,51,126,26498.52,4,4,4,444,1,4796,2022-11-01,WALGREENS #04714 / DES MOINES,A,4555 FLEUR DR,IA,50321,41.542957,-93.644941,DES MOINES
570,5739,21,199,21301.25,4,4,4,444,1,5739,2022-11-01,CASEY'S GENERAL STORE #1455,A,27470 HWY 65 SOUTH,IA,50122,42.303759,-93.30968,HUBBARD
571,4140,3,1599,270276.8,1,1,1,111,1,4140,2022-11-01,FAREWAY STORES #900 / EUCLID,A,100 EUCLID AVE,IA,50313,41.627684,-93.618871,DES MOINES
572,5233,10,413,76359.34,3,3,2,332,1,5233,2022-11-01,CASEY'S GENERAL STORE #2640 / PLEASA,A,1006 W PLEASANT ST,IA,50225,41.392696,-93.279121,PLEASANTVILLE
573,6160,5,1552,171855.91,2,1,1,211,1,6160,2022-11-01,CASEY'S #6127 / COUNCIL BLUFFS,A,2711 S 24TH ST,IA,51501,41.234683,-95.879146,COUNCIL BLUFFS
574,6141,0,381,65105.17,1,3,2,132,1,6141,2022-11-01,KJ'S CONVENIENCE & DELI / MAQUOKETA,A,916 WEST PLATT,IA,52060,42.06898,-90.677275,MAQUOKETA
575,5969,0,289,35362.01,1,3,3,133,1,5969,2022-11-01,CASEY'S GENERAL STORE #3288 / BLUE GRASS,A,301 E. MAYNE ST,IA,52726,41.509099,-90.762646,BLUE GRASS
576,3789,5,1168,202747.42,2,2,1,221,1,3789,2022-11-01,WAL-MART 1393 / OSKALOOSA,A,2203 A AVENUE WEST,IA,52577,41.298516,-92.669924,OSKALOOSA
577,4867,5,600,75274.73,2,2,2,222,1,4867,2022-11-01,SPEEDY GAS N SHOP,A,430 S 35TH ST,IA,51501,41.257581,-95.902023,COUNCIL BLUFFS
578,5747,4,435,52640.53,2,3,3,233,1,5747,2022-11-01,CASEY'S GENERAL STORE #3201 / COUNCIL BLUFFS,A,701 32ND AVE,IA,51501,41.22822,-95.852954,COUNCIL BLUFFS
579,2711,12,529,27264.36,4,3,4,434,1,2711,2022-11-01,HY-VEE GAS #2 / OTTUMWA,A,2457 N COURT ST,IA,52501,41.050551,-92.408195,OTTUMWA
580,6131,13,59,7649.99,4,4,4,444,1,6131,2022-11-01,LEEDS FOOD N FUEL / SIOUX CITY,A,4004 FLOYD BLVD,IA,51108,42.541225,-96.359675,SIOUX CITY
581,2612,3,1763,202304.75,1,1,1,111,1,2612,2022-11-01,HY-VEE STORE / PERRY,A,1215  141 ST,IA,50220,41.830292,-94.104501,PERRY
582,4159,3,1083,203447.07,1,2,1,121,1,4159,2022-11-01,FAREWAY STORES #073 / COUNCIL BLUFFS,A,310 MCKENZIE AVE,IA,51503,41.280148,-95.817999,COUNCIL BLUFFS
583,4201,4,1225,396506.35,2,1,1,211,1,4201,2022-11-01,FAREWAY STORES #022 / SIOUX CITY,A,4040 WAR EAGLE DR,IA,51109,42.494881,-96.461706,SIOUX CITY
584,5367,10,240,32711.02,3,4,3,343,1,5367,2022-11-01,CASEY'S GENERAL STORE # 2618/ FREDRICKSBURG,A,215 W MAIN ST.,IA,50630,42.965093,-92.202089,FREDERICKSBURG
585,6191,10,420,29196.42,3,3,4,334,1,6191,2022-11-01,HY-VEE FAST AND FRESH #2 / WAUKEE,A,155 W. HICKMAN RD.,IA,50263,41.615007,-93.876296,WAUKEE
586,4971,5,1574,309482.57,2,1,1,211,1,4971,2022-11-01,FAREWAY STORES #138 / PLEASANT HILL,A,"5500, E UNIVERSITY AVE",IA,50327,41.599274,-93.505732,PLEASANT HILL
587,6292,26,86,10706.38,4,4,4,444,1,6292,2022-11-01,JET STOP DENMARK / DENMARK,A,603 ACADEMY AVE.,IA,52624,40.741742,-91.336142,DENMARK
588,2835,18,121,17978.34,4,4,4,444,1,2835,2022-11-01,CVS PHARMACY #8538 / CEDAR FALLS,A,2302 WEST FIRST ST,IA,50613,42.539874,-92.472778,CEDAR FALLS
589,3549,5,1880,519672.86,2,1,1,211,1,3549,2022-11-01,QUICKER LIQUOR STORE,A,1414 48TH ST,IA,52627,40.6243,-91.373208,FORT MADISON
590,2649,3,5954,603506.36,1,1,1,111,0,2649,2022-11-01,HY-VEE #3 / DUBUQUE,A,400 LOCUST ST,IA,52001,42.497219,-90.666497,DUBUQUE
591,5912,3,833,114000.72,1,2,2,122,1,5912,2022-11-01,JMC SUPERMARKET / PERRY,A,605 1ST AVE,IA,50220,41.83359,-94.106583,PERRY
592,5840,12,319,45947.4,4,3,3,433,1,5840,2022-11-01,BROTHER'S MARKET / CLARION,A,325 CENTRAL AVE WEST,IA,50525,42.731643,-93.735875,CLARION
593,5028,0,621,102865.7,1,2,2,122,1,5028,2022-11-01,MIDTOWN LIQUOR,A,1100 E 5TH ST,IA,50588,42.644563,-95.186938,STORM LAKE
594,5010,0,1083,76389.04,1,2,2,122,1,5010,2022-11-01,SAC CITY FOOD PRIDE,A,106 S 16TH ST,IA,50583,42.422404,-95.002637,SAC CITY
595,6339,5,187,21196.58,2,4,4,244,1,6339,2022-11-01,AINSWORTH FOUR CORNERS / AINSWORTH,A,3112 IOWA 92,IA,52201,41.290805,-91.53565,AINSWORTH
596,5792,103,130,10853.18,4,4,4,444,1,5792,2022-11-01,CASEY'S GENERAL STORE #2672 / SANBORN,A,510 W 7TH ST,IA,51248,43.186022,-95.661995,SANBORN
597,9013,6,174,63620.16,3,4,2,342,1,9013,2022-11-01,IOWA DISTILLING COMPANY,I,4349 CUMMING AVE.,IA,50061,41.483192,-93.762456,CUMMING
598,2723,11,134,18938.61,3,4,4,344,1,2723,2022-11-01,HY-VEE GAS / JOHNSTON,A,5902 MERLE HAY ROAD,IA,50322,41.667743,-93.697741,JOHNSTON
599,4590,4,516,58443.55,2,3,2,232,1,4590,2022-11-01,CASEY'S GENERAL STORE #3045 / CEDAR FALLS,A,"601, MAIN ST",IA,50613,42.532963,-92.445512,CEDAR FALLS
600,2555,5,5336,638158.83,2,1,1,211,0,2555,2022-11-01,HY-VEE FOOD STORE / KEOKUK,A,3111 MAIN,IA,52632,40.415303,-91.403673,KEOKUK
601,5791,31,97,18156.56,4,4,4,444,1,5791,2022-11-01,CASEY'S GENERAL STORE #2060 / POCAHONTAS,A,605 W ELM AVE,IA,50574,42.732597,-94.67811,POCAHONTAS
602,5187,5,1369,152600.9,2,1,1,211,1,5187,2022-11-01,KWIK STOP LIQUOR & GROCERIES AMES,A,125 6TH ST,IA,50010,42.026942,-93.611615,AMES
603,3790,5,1361,224212.72,2,1,1,211,1,3790,2022-11-01,WAL-MART 0784 / MT PLEASAN,A,1045 N GRAND AVE,IA,52641,40.979552,-91.539527,MT PLEASANT
604,5117,6,372,39532.29,3,3,3,333,1,5117,2022-11-01,FOOD & GAS MART  /  MARSHALLTOWN,A,"613, N 3RD AVE",IA,50158,42.05757,-92.9081,MARSHALLTOWN
605,2597,0,1080,166157.14,1,2,1,121,1,2597,2022-11-01,HY-VEE FOOD STORE / CHEROKEE,A,1300 N. SECOND,IA,51012,42.765259,-95.552585,CHEROKEE
606,5479,3,259,45665.08,1,4,3,143,1,5479,2022-11-01,CASEY'S GENERAL STORE #3534 / CLERMONT,A,74 MILL STREET,IA,52135,42.996807,-91.659241,CLERMONT
607,9031,40,11,8392.02,4,4,4,444,1,9031,2022-11-01,LONELY OAK DISTILLERY,I,1833 ELMWOOD RD,IA,51530,41.770879,-95.479709,EARLING
608,5399,7,377,61786.04,3,3,2,332,1,5399,2022-11-01,CASEY'S GENERAL STORE # 1876/MANLY,A,505 HWY 65 S,IA,50456,43.283246,-93.210905,MANLY
609,6130,3,2388,249399.59,1,1,1,111,1,6130,2022-11-01,HIWAY 20 LIQUOR AND TOBACCO / FORT DODGE,A,1724 5TH AVE S,IA,50501,42.501131,-94.173816,FORT DODGE
610,6195,0,1102,231530.89,1,2,1,121,1,6195,2022-11-01,DT LIQUOR LLC / DEWITT,A,301 11TH STREET,IA,52742,41.826248,-90.534769,DEWITT
611,5768,59,146,22139.03,4,4,4,444,1,5768,2022-11-01,CASEY'S GENERAL STORE #1886 / OTTUMWA,A,504 W MARY ST,IA,52501,40.994753,-92.429217,OTTUMWA
612,5738,3,301,45552.64,1,3,3,133,1,5738,2022-11-01,CASEY'S GENERAL STORE #3291,A,5110 HWY 13 N,IA,52218,42.274821,-91.525344,COGGON
613,4998,0,694,89835.69,1,2,2,122,1,4998,2022-11-01,LAKE CITY FOOD CENTER,A,820 E MAIN ST,IA,51449,42.267363,-94.724867,LAKE CITY
614,4489,7,566,74180.3,3,2,2,322,1,4489,2022-11-01,CASEY'S GENERAL STORE #2763 / CEDAR RAPIDS,A,641 EDGEWOOD RD NW,IA,52405,41.979772,-91.715925,CEDAR RAPIDS
615,6012,4,246,32931.14,2,4,3,243,1,6012,2022-11-01,CASEY'S GENERAL STORE #1893 / MASON CITY,A,1607 S FEDERAL AVE,IA,50401,43.135953,-93.201052,MASON CITY
616,5776,14,181,26514.78,4,4,4,444,1,5776,2022-11-01,CASEY'S GENERAL STORE #2890 / WEST LIBERTY,A,402 W 15TH ST,IA,52776,41.583271,-91.266319,WEST LIBERTY
617,5824,0,193,23479.11,1,4,4,144,1,5824,2022-11-01,CASEY'S GENERAL STORE #1695 / SOLON,A,203 S MARKET ST,IA,52333,41.806076,-91.492953,SOLON
618,5573,14,410,53502.29,4,3,3,433,1,5573,2022-11-01,CASEY'S GENERAL STORE #2768 / CEDAR RAPIDS,A,1201 1ST AVE SE,IA,52402,41.98509,-91.657579,CEDAR RAPIDS
619,4146,6,764,165422.51,3,2,1,321,1,4146,2022-11-01,FAREWAY STORES #561 / WAVERLY,A,220 W BREMER AVE,IA,50677,42.725748,-92.473476,WAVERLY
620,3980,5,1954,326405.18,2,1,1,211,1,3980,2022-11-01,WAL-MART 1721 / IOWA CITY,A,919 HWY 1 WEST,IA,52246,41.646075,-91.553561,IOWA CITY
621,4158,0,1306,188820.4,1,1,1,111,1,4158,2022-11-01,FAREWAY STORES #409 / CARROLL,A,709 MONTEREY DR,IA,51401,42.065252,-94.850616,CARROLL
622,4107,3,1992,328009.46,1,1,1,111,1,4107,2022-11-01,FAREWAY STORES #384 / BOONE,A,1711 HAWKEYE DR,IA,50036,42.037347,-93.867439,BOONE
623,3712,3,1919,131170.47,1,1,2,112,1,3712,2022-11-01,MONTE SPIRITS,A,109 N 4TH ST,IA,50171,41.585429,-92.523692,MONTEZUMA
624,4021,5,1183,203848.66,2,2,1,221,1,4021,2022-11-01,WAL-MART 0985 / FAIRFIELD,A,2701 W BURLINGTON AVE,IA,52556,41.006375,-91.993559,FAIRFIELD
625,5340,0,1202,76238.15,1,2,2,122,1,5340,2022-11-01,KUM & GO #532/ WEST DSM,A,5901 MILLS CIVIC PKWY #2000,IA,50266,41.559161,-93.78959,WEST DES MOINES
626,4756,27,92,19886.28,4,4,4,444,1,4756,2022-11-01,WALGREENS #03196 / MARSHALLTOWN,A,5 E ANSON,IA,50158,42.038119,-92.911565,MARSHALLTOWN
627,6015,46,113,17600.88,4,4,4,444,1,6015,2022-11-01,CASEY'S GENERAL STORE #19 / MASON CITY,A,813 N FEDERAL AVE,IA,50401,43.159682,-93.201085,MASON CITY
628,5351,6,3429,809302.79,3,1,1,311,0,5351,2022-11-01,DOWNTOWN LIQUOR,A,1203 5TH ST.,IA,51101,42.495324,-96.394671,SIOUX CITY
629,5979,13,324,29637.28,4,3,4,434,1,5979,2022-11-01,CASEY'S GENERAL STORE #2665 / WOODBINE,A,602 LINCOLNWAY ST,IA,51579,41.738573,-95.70312,WOODBINE
630,5307,6,1119,233805.21,3,2,1,321,1,5307,2022-11-01,FAREWAY STORES #167/JOHNSTON,A,6005 MERLE HAY ROAD,IA,50131,41.669813,-93.697654,JOHNSTON
631,4014,6,1019,162686.36,3,2,1,321,1,4014,2022-11-01,WAL-MART 1732 / DENISON,A,510 C AVE,IA,51442,,,DENISON
632,4644,7,441,51682.58,3,3,3,333,1,4644,2022-11-01,KWIK SHOP #588 / DAVENPORT,A,"1136, E LOCUST ST",IA,52803,41.538288,-90.558658,DAVENPORT
633,6008,6,659,145095.24,3,2,2,322,1,6008,2022-11-01,TARGET STORE T-3374 / IOWA CITY,A,113 E WASHINGTON ST,IA,52240,41.660078,-91.533956,IOWA CITY
634,5649,6,645,46069.65,3,2,3,323,1,5649,2022-11-01,THE DEPOT TIFFIN,A,221 W MARENGO RD,IA,52340,41.707114,-91.665093,TIFFIN
635,4273,3,4263,113837.24,1,1,2,112,0,4273,2022-11-01,SMOKIN' JOE'S #4 TOBACCO AND LIQUOR OUTLET,A,2800 E UNIVERSITY AVE,IA,50317,41.600564,-93.562106,DES MOINES
636,4186,3,893,149018.34,1,2,2,122,1,4186,2022-11-01,H AND A MINI MART /BP,A,5901 FLEUR DR,IA,50321,41.531237,-93.644947,DES MOINES
637,3774,0,783,90514.67,1,2,2,122,1,3774,2022-11-01,EAGLE COUNTRY MARKET / DUBUQUE,A,1800 ELM ST,IA,52001,42.510993,-90.665703,DUBUQUE
638,5230,5,1414,390838.36,2,1,1,211,1,5230,2022-11-01,POINT LIQUOR & TOBACCO,A,"3221, CENTER POINT RD NE",IA,52402,42.011329,-91.663628,CEDAR RAPIDS
639,4495,0,586,89116.22,1,2,2,122,1,4495,2022-11-01,CASEY'S GENERAL STORE #3055 / GRUNDY CENTER,A,"504, G AVE",IA,50638,42.361494,-92.770411,GRUNDY CENTER
640,4446,4,1370,96831.17,2,1,2,212,1,4446,2022-11-01,QUIK TRIP #513 / URBANDALE,A,4600 MERLE HAY ROAD,IA,50322,41.644476,-93.697976,URBANDALE
641,5418,5,333,47254.9,2,3,3,233,1,5418,2022-11-01,CASEY'S GENERAL STORE # 2780/CEDAR RAPIDS,A,5555 EDGEWOOD RD NE,IA,52411,42.034051,-91.701374,CEDAR RAPIDS
642,5836,19,101,14046.11,4,4,4,444,1,5836,2022-11-01,CASEY'S GENERAL STORE #1612 / MOUNT PLEASANT,A,400 W WASHINGTON ST,IA,52641,40.965906,-91.557923,MOUNT PLEASANT
643,2616,0,7167,1070299.39,1,1,1,111,0,2616,2022-11-01,HY-VEE FOOD AND DRUG / CLINTON,A,901 SOUTH 4TH ST,IA,52732,41.836918,-90.193209,CLINTON
644,5756,10,330,21849.29,3,3,4,334,1,5756,2022-11-01,CASEY'S GENERAL STORE #1577 / ALBIA,A,122 N MAIN ST,IA,52531,41.028759,-92.807138,ALBIA
645,4968,62,135,21504.2,4,4,4,444,1,4968,2022-11-01,CASEY'S GENERAL STORE #3042 / BROOKLYN,A,"106, W 2ND ST",IA,52211,41.7301,-92.445853,BROOKLYN
646,4640,5,861,242920.15,2,2,1,221,1,4640,2022-11-01,MART STOP #1 / DAVENPORT,A,3527 SPRING ST,IA,52807,41.5563,-90.547751,DAVENPORT
647,4490,0,637,96247.39,1,2,2,122,1,4490,2022-11-01,CASEY'S GENERAL STORE #2766 / CEDAR RAPIDS,A,380 33RD AVE SW,IA,52404,41.944954,-91.672221,CEDAR RAPIDS
648,5228,13,262,41400.25,4,4,3,443,1,5228,2022-11-01,ANTHON MINI MART,A,"101, W MAIN ST",IA,51004,42.388265,-95.868594,ANTHON
649,4712,28,240,30921.34,4,4,4,444,1,4712,2022-11-01,WALGREENS #11942 / DUBUQUE,A,345 E 20TH ST,IA,52001,42.51203,-90.667142,DUBUQUE
650,4404,5,699,47501.41,2,2,3,223,1,4404,2022-11-01,KUM & GO #292 / ANKENY,A,1825 N ANKENY BLVD,IA,50021,41.746653,-93.600247,ANKENY
651,5574,3,613,66962.32,1,2,2,122,1,5574,2022-11-01,CASEY'S GENERAL STORE #2760 / MARION,A,975 S 11TH ST,IA,52302,42.020927,-91.598165,MARION
652,5191,3,242,22758.03,1,4,4,144,1,5191,2022-11-01,CASEY'S GENERAL STORE #1534 / GUTHRI,A,"100, N  5TH ST",IA,50115,41.67748,-94.502323,GUTHRIE CENTER
653,5950,3,260,34432.48,1,4,3,143,1,5950,2022-11-01,CASEY'S GENERAL STORE #3898 / ANAMOSA,A,23485 COUNTY ROAD E34,IA,52205,42.072744,-91.334161,ANAMOSA
654,2668,3,543,51639.86,1,3,3,133,1,2668,2022-11-01,HY-VEE FOOD STORE / LEON,A,1004 W 1ST ST,IA,50144,40.739645,-93.757827,LEON
655,4378,3,1267,77630.54,1,1,2,112,1,4378,2022-11-01,KUM & GO #1202 / WAUKEE,A,650 W HICKMAN RD,IA,50263,41.614921,-93.886466,WAUKEE
656,5919,3,153,22463.59,1,4,4,144,1,5919,2022-11-01,CASEY'S GENERAL STORE #2584  / OSSIAN,A,200 W MAIN ST,IA,52161,43.146669,-91.767672,OSSIAN
657,5102,0,6810,3331712.92,1,1,1,111,0,5102,2022-11-01,WILKIE LIQUORS,A,724 1ST STREET NE,IA,52314,41.918328,-91.410401,MOUNT VERNON
658,3625,5,2917,555442.54,2,1,1,211,1,3625,2022-11-01,WAL-MART 0892 / ANKENY,A,1002 SE NATIONAL DR,IA,50021,41.704864,-93.582348,ANKENY
659,6293,12,115,12660.25,4,4,4,444,1,6293,2022-11-01,JET STOP WEST POINT / WEST POINT,A,703 AVENUE D,IA,52656,40.716632,-91.449365,WEST POINT
660,5628,5,570,118085.02,2,2,2,222,1,5628,2022-11-01,SUPER CONVENIENCE STORE,A,2547 2ND AVENUE,IA,51501,41.259792,-95.883943,COUNCIL BLUFFS
661,3997,6,651,118209.03,3,2,2,322,1,3997,2022-11-01,WAL-MART 4606 / OSCEOLA,A,2400 COLLEGE DRIVE,IA,50213,,,OSCEOLA
662,4624,12,443,28832.23,4,3,4,434,1,4624,2022-11-01,KWIK SHOP #568 / HIAWATHA,A,300 E BLAIRS FERRY RD,IA,52233,42.034757,-91.673066,HIAWATHA
663,4405,5,614,42152.31,2,2,3,223,1,4405,2022-11-01,KUM & GO #92 / ANKENY,A,1025 E 1ST ST,IA,50021,41.731816,-93.58166,ANKENY
664,6136,6,1093,135387.42,3,2,2,322,1,6136,2022-11-01,RUSH STOP / CHARLES CITY,A,609 S MAIN ST,IA,50616,43.061014,-92.682538,CHARLES CITY
665,6268,6,1796,160160.82,3,1,1,311,1,6268,2022-11-01,SUPER MART / OELWEIN,A,701 SOUTH FREDERICK AVENUE,IA,50662,42.669128,-91.913481,OELWEIN
666,4239,5,1383,286172.89,2,1,1,211,1,4239,2022-11-01,FAREWAY STORES #850 / SPIRIT LAKE,A,1906 KEOKUK,IA,51360,43.42157,-95.106219,SPIRIT LAKE
667,6314,3,96,10398.43,1,4,4,144,1,6314,2022-11-01,JET STOP MILTON / MILTON,A,109 E HWY 2,IA,52570,40.667424,-92.161107,MILTON
668,4868,3,946,65785.26,1,2,2,122,1,4868,2022-11-01,KUM & GO #59 / WAUKEE,A,400 PRAIRIE BLUFF DR,IA,50263,41.565613,-93.880006,WAUKEE
669,6028,3,684,68417.24,1,2,2,122,1,6028,2022-11-01,CASEY'S GENERAL STORE #2686 / FORT DODGE,A,3327 5TH AVE S.,IA,50501,42.501297,-94.144208,FORT DODGE
670,2690,35,32,1641.82,4,4,4,444,1,2690,2022-11-01,HY-VEE FAST & FRESH - KNOXVILLE,A,809 NORTH LINCOLN STREET,IA,50138,41.325392,-93.109494,KNOXVILLE
671,4395,6,670,57520.53,3,2,2,322,1,4395,2022-11-01,KUM & GO #133 / ELLSWORTH,A,1111 IA HIGHWAY 175,IA,50075,42.310457,-93.574019,ELLSWORTH
672,5107,4,1714,55450.04,2,1,3,213,1,5107,2022-11-01,KUM & GO #4098 / WINDSOR HEIGHTS,A,7229 UNIVERSITY AVE,IA,50311,41.600365,-93.717677,WINDSOR HEIGHTS
673,5467,3,274,37332.54,1,3,3,133,1,5467,2022-11-01,CASEY'S GENERAL STORE #95 / DEXTER,A,803 STATE ST,IA,50070,41.518101,-94.22772,DEXTER
674,6098,5,276,29099.02,2,3,4,234,1,6098,2022-11-01,BREW OIL #40 / SPENCER,A,1001 S GRAND AVE,IA,51301,43.12759,-95.143701,SPENCER
675,4552,7,672,65286.53,3,2,2,322,1,4552,2022-11-01,CASEY'S GENERAL STORE #2493 / BUFFALO,A,222 W FRONT ST,IA,52728,,,BUFFALO
676,3930,6,683,150939.17,3,2,2,322,1,3930,2022-11-01,KUENNEN'S LIQUOR STORE,A,106 W MAINS ST PO BOX 142,IA,52166,,,ST LUCAS
677,2637,6,6740,798675.13,3,1,1,311,0,2637,2022-11-01,HY-VEE #5 / DAVENPORT,A,2351 W LOCUST,IA,52804,41.538204,-90.612406,DAVENPORT
678,5501,4,1643,104260.48,2,1,2,212,1,5501,2022-11-01,QUIK TRIP #530 / EUCLID,A,1424 E EUCLID AVE,IA,50313,41.627782,-93.599168,DES MOINES
679,4601,3,890,50777.81,1,2,3,123,1,4601,2022-11-01,KUM & GO #4110 / GUTHRIE DM,A,2110 GUTHRIE AVE,IA,50317,41.615078,-93.578684,DES MOINES
680,6317,17,143,17019.11,4,4,4,444,1,6317,2022-11-01,HY-VEE FAST AND FRESH #2 / GRIMES,A,1701 SOUTHEAST 37TH STREET,IA,50111,,,GRIMES
681,5257,3,2628,682813.23,1,1,1,111,1,5257,2022-11-01,MAD AVE QUIK SHOP,A,"405, MADISON AVE",IA,52501,,,OTTUMWA
682,3987,187,414,60964.27,4,3,2,432,1,3987,2022-11-01,WINE AND SPIRITS SHOPPE OF,I,111 S PHILLIPS ST,IA,50511,43.068382,-94.226874,ALGONA
683,2712,3,3080,463772.38,1,1,1,111,1,2712,2022-11-01,HY-VEE / DECORAH,A,915 SHORT ST #107,IA,52101,43.291023,-91.797771,DECORAH
684,6338,3,827,94550.7,1,2,2,122,1,6338,2022-11-01,TOBACCO HUT PLUS US GAS / DES MOINES,A,3000 SW 9TH STREET,IA,50315,41.557948,-93.625685,DES MOINES
685,3721,3,2069,359746.06,1,1,1,111,1,3721,2022-11-01,WAL-MART 0913 / DECORAH,A,1798 OLD STAGE RD,IA,52101,43.290185,-91.752933,DECORAH
686,3722,4,2517,450247.89,2,1,1,211,1,3722,2022-11-01,WAL-MART 1361 / SIOUX CITY,A,3400 SINGING HILLS BLVD,IA,51106,42.436118,-96.364164,SIOUX CITY
687,4775,3,495,40080.57,1,3,3,133,1,4775,2022-11-01,CASEY'S GENERAL STORE #37 / DAKOTA CITY,A,"502, MAIN",IA,50529,42.721419,-94.200785,DAKOTA CITY
688,2710,45,344,12419.31,4,3,4,434,1,2710,2022-11-01,HY-VEE GAS #1 / OTTUMWA,A,1027 N QUINCY AVE,IA,52501,41.016113,-92.438465,OTTUMWA
689,5724,17,257,39373.9,4,4,3,443,1,5724,2022-11-01,CASEY'S GENERAL STORE #3772,A,105 SOUTH 18TH STREET,IA,52544,40.73213,-92.867947,CENTERVILLE
690,5068,5,4970,548619.96,2,1,1,211,0,5068,2022-11-01,TOBACCO SHOP / ARNOLDS PARK,A,612 S HIGHWAY 71,IA,51331,43.361577,-95.140274,ARNOLDS PARK
691,4859,6,370,44894.45,3,3,3,333,1,4859,2022-11-01,CIRCLE K #4706604 / BURLINGTON,A,421 N MAIN ST,IA,52601,40.811112,-91.101093,BURLINGTON
692,5651,4,4189,304663.76,2,1,1,211,0,5651,2022-11-01,SUPER QUICK MART / WINDSOR HEIGHTS,A,7690 HICKMAN RD,IA,50324,41.614669,-93.722436,WINDSOR HEIGHTS
693,6181,12,182,15284.36,4,4,4,444,1,6181,2022-11-01,HY-VEE GAS #2 / CORALVILLE,A,3290 CROSSPARK ROAD,IA,52241,41.721995,-91.606195,CORALVILLE
694,2673,5,3066,538710.28,2,1,1,211,1,2673,2022-11-01,HY-VEE # 6/ DES MOINES,A,420 COURT AVE,IA,50309,41.584896,-93.622219,DES MOINES
695,5770,6,371,42720.95,3,3,3,333,1,5770,2022-11-01,CASEY'S GENERAL STORE #2427 / WATERLOO,A,3035 LOGAN AVE,IA,50703,42.542919,-92.337524,WATERLOO
696,4836,6,368,25582.23,3,3,4,334,1,4836,2022-11-01,KUM & GO #52 / IOWA CITY,A,25 W BURLINGTON ST,IA,52240,41.657904,-91.537237,IOWA CITY
697,4651,6,860,51384.9,3,2,3,323,1,4651,2022-11-01,CASEY'S GENERAL STORE #2300 / JEWELL,A,301 MAIN ST,IA,50130,42.302654,-93.640039,JEWELL
698,5453,4,425,34169.51,2,3,3,233,1,5453,2022-11-01,CASEY'S GENERAL STORE # 2817/ GRISWOLD,A,900 MAIN ST.,IA,51535,41.234674,-95.137011,GRISWOLD
699,5710,13,687,51410.78,4,2,3,423,1,5710,2022-11-01,CASEY'S #3763 -WAVERLY,A,1032 4TH STREET SW,IA,50677,42.715551,-92.475569,WAVERLY
700,5977,5,199,27663.05,2,4,4,244,1,5977,2022-11-01,CASEY'S GENERAL STORE #2305 / BELMOND,A,303 RIVER AVE S,IA,50421,42.843811,-93.616852,BELMOND
701,5959,49,34,4987.74,4,4,4,444,1,5959,2022-11-01,YOUR PRIVATE BAR / URBANDALE,A,3040 104TH ST  STE 3056,IA,50322,41.622471,-93.760606,URBANDALE
702,5985,26,175,20625.41,4,4,4,444,1,5985,2022-11-01,CASEY'S GENERAL STORE #2350 / OSKALOOSA,A,1902 S MARKET ST,IA,52577,41.278496,-92.64507,OSKALOOSA
703,5519,6,466,57924.71,3,3,2,332,1,5519,2022-11-01,CASEY'S GENERAL STORE #3648 / AKRON,A,80 SOUTH ST,IA,51001,42.823106,-96.563106,AKRON
704,3868,3,3310,622032.45,1,1,1,111,0,3868,2022-11-01,WAL-MART 3630 / MARION,I,5491 BUSINESS HWY 151,IA,52302,,,MARION
705,5521,3,772,66367.65,1,2,2,122,1,5521,2022-11-01,CASEY'S GENERAL STORE #3640 / WAUKEE,A,870 NE ALICE'S RD,IA,50263,,,WAUKEE
706,10042,3,289,13108.98,1,3,4,134,1,10042,2022-11-01,ELKADER PRONTO MARKET / ELKADER,A,107 1ST STREET SW,IA,52043,42.85389,-91.405293,ELKADER
707,6269,0,1738,185587.78,1,1,1,111,1,6269,2022-11-01,"NEIGHBORHOOD FOOD, LIQUOR & TOBACCO / CEDAR RAPIDS",A,1601 6TH ST SW,IA,52404,41.961547,-91.677082,CEDAR RAPIDS
708,6321,49,114,13145.12,4,4,4,444,1,6321,2022-11-01,COLONY POINT FUEL & GAS - WILLIAMSBURG,A,333 220TH STREET,IA,52361,,,WILLIAMSBURG
709,3912,4,1483,74429.21,2,1,2,212,1,3912,2022-11-01,SMOKIN' JOE'S #14 TOBACCO AND LIQUOR OUTLET,A,225 EDGEWOOD RD. NW,IA,52405,41.973737,-91.715944,CEDAR RAPIDS
